     2.10           OBSERVATION DATA    M (MIXED)           RINEX VERSION / TYPE
LoggerServer.exe    NIST                20-Aug-17 23:59     PGM / RUN BY / DATE
The reference is antenna ARP only, mounted on a forced      COMMENT
centering threaded rod that is bolted to a metal tower.     COMMENT
The tower sits on the roof of NIST Building 1.              COMMENT
Signal Strengh values S1,S2 are in dBHz                     COMMENT
NIST                                                        MARKER NAME
49507M002                                                   MARKER NUMBER
NIST                NIST                                    OBSERVER / AGENCY
SWU04029169         NOV OEM4-G2         2.200-L1L2W         REC # / TYPE / VERS
04230007            NOV702          NONE                    ANT # / TYPE
 -1288349.1490 -4721661.0480  4078676.0170                  APPROX POSITION XYZ
        0.0000        0.0000        0.0000                  ANTENNA: DELTA H/E/N
     1     1                                                WAVELENGTH FACT L1/2
     8    C1    L1    D1    S1    P2    L2    D2    S2      # / TYPES OF OBSERV
  2017     8    21     0     0    0.0000000     GPS         TIME OF FIRST OBS
                                                            END OF HEADER
 17  8 21  0  0  0.0000000  0 10G10G13G15G16G18G20G21G24G27G29
  22392367.34248 117672699.87248      2249.89148        46.596    22392369.87545
  91693033.02545      1753.16045        39.263
  23212388.04746 121981955.49946     -2741.21946        43.158    23212387.93243
  95050886.86843     -2136.02043        35.673
  21016737.78149 110443770.26049     -1443.54749        50.199    21016737.20646
  86060119.58546     -1124.84446        41.778
  24863121.38746 130656567.54346     -1927.83646        41.266    24863122.29141
 101810346.62441     -1502.21541        32.072
  20900572.49949 109833285.31349       729.25449        48.554    20900571.69246
  85584395.46846       568.24646        42.034
  21915222.11548 115165350.91348     -2431.28148        46.191    21915220.79444
  89739252.92944     -1894.50844        38.841
  20945153.91549 110067572.57649       609.69949        48.112    20945152.99047
  85766948.02047       475.08647        44.844
  24246269.94544 127415006.34844      2765.46544        37.836    24246272.96743
  99284436.83243      2154.90643        35.161
  23138041.20947 121591246.85647      2422.64547        44.729    23138042.75544
  94746429.05544      1887.77344        38.711
  23460072.23647 123283517.09547     -3751.93047        45.422    23460073.34042
  96065094.15842     -2923.58642        33.914
 17  8 21  0  0 30.0000000  0 10G10G13G15G16G18G20G21G24G27G29
  22379542.33848 117605304.69848      2243.05948        46.329    22379545.13945
  91640517.33345      1747.83645        40.627
  23228075.27547 122064392.10147     -2754.17647        44.237    23228075.34043
  95115123.13343     -2146.11343        34.893
  21025030.81849 110487351.00349     -1461.94949        50.043    21025030.54646
  86094078.59946     -1139.18446        42.091
  24874160.53046 130714576.66946     -1939.08246        41.336    24874161.20842
 101855548.57342     -1510.97742        33.212
  20896430.78449 109811520.74749       721.65649        48.591    20896430.25146
  85567436.06846       562.32846        42.753
  21929114.59648 115238357.15248     -2435.91848        46.195    21929113.59745
  89796140.88045     -1898.12145        39.697
  20941700.29749 110049423.72549       600.15249        48.010    20941699.26447
  85752806.05847       467.64847        44.734
  24230493.84844 127332103.25544      2761.26644        38.387    24230496.21342
  99219837.07442      2151.63742        33.630
  23124252.69647 121518786.02047      2408.15647        44.301    23124254.10745
  94689966.07245      1876.48045        39.025
  23481503.74547 123396139.81347     -3756.34447        44.952    23481504.64343
  96152852.08943     -2927.02343        35.916
 17  8 21  0  1  0.0000000  0 10G10G13G15G16G18G20G21G24G27G29
  22366757.60748 117538121.05548      2236.00448        46.721    22366760.38145
  91588166.47345      1742.33645        40.635
  23243835.44046 122147211.77946     -2767.31646        42.214    23243835.35343
  95179657.94143     -2156.35543        35.783
  21033428.57449 110531482.27749     -1480.17649        50.006    21033428.49846
  86128466.60346     -1153.38746        41.984
  24885262.60645 130772918.48945     -1950.24245        40.974    24885263.49841
 101901009.73641     -1519.67241        30.970
  20892332.91749 109789986.46149       713.99649        48.598    20892332.47446
  85550656.11546       556.35546        42.338
  21943035.07048 115311508.98048     -2440.81648        46.222    21943033.93645
  89853142.30645     -1901.93845        39.003
  20938301.28949 110031562.03249       590.64849        47.923    20938300.20347
  85738887.85347       460.24247        44.927
  24214741.93045 127249326.22745      2757.12945        40.301    24214743.76542
  99155335.52042      2148.41442        33.744
  23110546.17346 121446758.57746      2393.61346        42.926    23110547.90944
  94633840.81044      1865.14844        38.640
  23502959.11747 123508888.76247     -3760.29347        45.330    23502960.43443
  96240708.29843     -2930.10243        34.690
 17  8 21  0  1 30.0000000  0 10G10G13G15G16G18G20G21G24G27G29
  22354013.28248 117471149.16348      2229.00848        46.389    22354015.98945
  91535980.59045      1736.88745        41.021
  23259667.68346 122230411.95446     -2779.74646        43.307    23259667.53642
  95244489.25742     -2166.03942        32.491
  21041930.69049 110576161.81149     -1498.46149        50.117    21041930.58746
  86163281.81846     -1167.63746        41.990
  24896427.30445 130831590.23545     -1961.40645        40.169    24896427.88141
 101946727.98741     -1528.37141        28.864
  20888278.87049 109768682.33149       706.34049        48.446    20888278.25746
  85534055.50346       550.39146        42.243
  21956982.92148 115384805.75648     -2445.58248        46.092    21956981.64844
  89910256.67544     -1905.65244        38.299
  20934957.10449 110013988.69849       580.96549        47.804    20934956.00347
  85725194.34347       452.69547        44.807
  24199014.68244 127166678.64744      2752.39544        38.868    24199016.68344
  99090934.81744      2144.72344        38.039
  23096922.20146 121375166.87346      2379.37546        42.005    23096924.65945
  94578055.09345      1854.05545        39.079
  23524438.27947 123621761.47847     -3764.30147        45.203    23524439.06042
  96328661.01742     -2933.22342        33.971
 17  8 21  0  2  0.0000000  0 10G10G13G15G16G18G20G21G24G27G29
  22341309.17248 117404389.17848      2221.95348        46.210    22341312.00445
  91483959.83745      1731.39145        40.214
  23275571.89046 122313989.95946     -2792.03546        42.919    23275572.19941
  95309614.92241     -2175.61341        31.913
  21050536.82049 110621387.86749     -1516.60549        49.989    21050536.73946
  86198522.89946     -1181.77346        42.039
  24907654.38644 130890589.07344     -1971.81244        37.796    24907654.87141
 101992701.06241     -1536.48041        30.954
  20884268.37149 109747607.41449       698.60949        48.360    20884267.72446
  85517633.50246       544.36746        41.852
  21970957.93248 115458245.78648     -2450.52348        46.234    21970956.92144
  89967482.64744     -1909.50444        38.328
  20931668.01849 109996705.04249       571.28949        47.934    20931666.97947
  85711726.56547       445.15647        44.398
  24183312.38944 127084163.54044      2748.20344        38.509    24183315.30444
  99026637.43544      2141.45344        37.751
  23083381.49846 121304013.30146      2364.57846        42.308    23083384.62544
  94522610.79444      1842.52344        38.604
  23545940.39947 123734755.11847     -3768.41847        45.050    23545940.89243
  96416707.97643     -2936.43443        35.273
 17  8 21  0  2 30.0000000  0 10G10G13G15G16G18G20G21G24G27G29
  22328645.14948 117337841.25048      2214.70348        45.769    22328648.44145
  91432104.33945      1725.73845        40.944
  23291547.63446 122397943.23146     -2804.93846        42.767    23291548.06842
  95375033.04742     -2185.66842        33.261
  21059246.62849 110667158.40149     -1534.72349        50.156    21059246.78946
  86234188.24146     -1195.89146        41.808
  24918943.26744 130949912.31344     -1982.79744        38.505    24918943.74341
 102038926.89541     -1545.03941        28.858
  20880301.56249 109726761.65649       690.94149        48.623    20880300.57346
  85501390.05946       538.39546        41.989
  21984960.21648 115531828.52748     -2455.19548        45.804    21984959.47844
  90024819.84244     -1913.14144        37.892
  20928434.30549 109979712.39049       561.48849        47.872    20928433.34547
  85698485.53747       437.52047        44.892
  24167636.13145 127001784.12145      2743.90645        39.217    24167639.41043
  98962445.74743      2138.10543        35.946
  23069925.13146 121233300.23446      2349.68446        43.187    23069928.37745
  94467509.72345      1830.91845        39.069
  23567464.48247 123847867.38047     -3772.32447        43.671    23567464.99143
  96504847.32243     -2939.47743        35.064
 17  8 21  0  3  0.0000000  0 10G10G13G15G16G18G20G21G24G27G29
  22316021.60348 117271505.58948      2207.58648        46.253    22316025.22945
  91380414.24645      1720.19545        39.841
  23307594.52647 122482268.92747     -2817.16447        44.058    23307594.90442
  95440741.35342     -2195.19542        32.969
  21068059.87549 110713471.58849     -1552.79749        50.012    21068060.04546
  86270276.44046     -1209.97746        42.752
  24930293.14844 131009557.33844     -1993.50844        38.359    24930294.13941
 102085403.48641     -1553.39141        32.104
  20876378.35549 109706144.51849       683.49649        48.866    20876377.04346
  85485324.75946       532.59046        41.333
  21998989.36447 115605553.08947     -2459.97347        45.453    21998988.73444
  90082267.54044     -1916.86344        38.502
  20925256.35749 109963012.04649       551.81649        47.865    20925255.37547
  85685472.28647       429.98447        44.812
  24151985.99544 126919543.41144      2739.00844        37.117    24151989.23543
  98898362.10643      2134.28543        36.661
  23056553.63447 121163030.04847      2334.94947        44.327    23056556.37545
  94412753.75245      1819.43845        40.705
  23589010.85147 123961094.72447     -3776.17247        44.702    23589011.20442
  96593076.37042     -2942.47742        34.309
 17  8 21  0  3 30.0000000  0 10G10G13G15G16G18G20G21G24G27G29
  22303438.91248 117205382.39148      2200.52748        46.731    22303442.24845
  91328889.68745      1714.69545        40.709
  23323711.84947 122566964.31147     -2829.32447        44.001    23323711.92842
  95506737.73242     -2204.67242        34.059
  21076975.93449 110760325.44749     -1570.80149        49.684    21076976.08446
  86306785.93646     -1224.00446        42.430
  24941703.53444 131069521.05344     -2004.03944        38.115    24941705.17041
 102132128.40841     -1561.59841        31.660
  20872498.63349 109685756.01649       675.80949        48.637    20872497.12746
  85469437.61446       526.60246        41.614
  22013045.29348 115679418.13348     -2464.51248        45.731    22013044.87144
  90139824.70144     -1920.40244        38.163
  20922134.29448 109946605.55048       541.90648        47.748    20922133.51347
  85672688.00347       422.26247        44.944
  24136362.80944 126837444.67744      2733.79344        37.973    24136365.47841
  98834389.11441      2130.22741        31.681
  23043266.74947 121093205.00247      2320.05147        45.084    23043269.24645
  94358344.64045      1807.82845        39.963
  23610578.80747 124074435.14747     -3779.90647        43.909    23610579.72743
  96681393.50443     -2945.38343        34.818
 17  8 21  0  4  0.0000000  0 10G10G13G15G16G18G20G21G24G27G29
  22290896.83548 117139471.81248      2193.44948        46.748    22290899.93246
  91277530.82246      1709.18046        41.389
  23339898.91747 122652026.94347     -2841.59047        43.667    23339898.25442
  95573020.32442     -2214.23042        33.505
  21085994.29849 110807718.00449     -1588.68449        49.677    21085994.54846
  86343715.19346     -1237.93846        41.774
  24953174.36345 131129800.22845     -2014.48845        38.942    24953175.68842
 102179099.12542     -1569.73442        34.163
  20868661.99649 109665594.76349       668.16449        48.579    20868660.48946
  85453727.55646       520.64546        41.652
  22027128.00847 115753422.84947     -2468.95747        45.228    22027127.54645
  90197490.69245     -1923.86745        39.013
  20919068.41249 109930494.09149       532.14549        47.810    20919067.64247
  85660133.62747       414.65647        45.004
  24120767.02745 126755490.81745      2729.37945        39.528    24120770.48443
  98770529.02143      2126.78543        35.187
  23030065.05547 121023827.48047      2305.18047        44.894    23030067.08745
  94304284.23045      1796.24245        39.732
  23632168.09447 124187885.81247     -3783.65247        44.308    23632168.89342
  96769796.57042     -2948.30542        34.064
 17  8 21  0  4 30.0000000  0 10G10G13G15G16G18G20G21G24G27G29
  22278395.27548 117073774.02148      2186.44148        46.693    22278398.15146
  91226337.75146      1703.71946        41.255
  23356154.86646 122737453.76046     -2853.76246        42.218    23356154.35642
  95639586.62942     -2223.71942        33.083
  21095114.68949 110855646.98449     -1606.61349        49.846    21095114.97946
  86381062.44946     -1251.91046        41.710
  24964704.89245 131190392.38145     -2025.16445        39.090    24964705.88541
 102226313.78641     -1578.05541        26.056
  20864868.67849 109645660.93549       660.78149        48.344    20864867.29146
  85438194.70346       514.89146        41.814
  22041237.12548 115827566.20648     -2473.84048        45.991    22041236.51944
  90255264.73744     -1927.67244        37.389
  20916058.82949 109914678.37049       522.18449        47.986    20916057.93347
  85647809.69447       406.89547        44.913
  24105200.07845 126673685.59745      2724.20745        39.472    24105203.58443
  98706784.76043      2122.75443        36.247
  23016948.72447 120954899.74547      2290.05147        44.187    23016950.00445
  94250574.31045      1784.45345        39.339
  23653777.39546 124301443.98546     -3787.04746        42.622    23653778.35943
  96858283.38643     -2950.95343        34.718
 17  8 21  0  5  0.0000000  0 10G10G13G15G16G18G20G21G24G27G29
  22265934.07248 117008289.17148      2179.23048        46.924    22265936.70845
  91175310.62245      1698.09845        40.728
  23372479.50345 122823242.71545     -2865.73045        40.962    23372479.54042
  95706435.13142     -2233.03942        34.082
  21104337.02649 110904110.56049     -1624.30149        49.957    21104337.09046
  86418826.26746     -1265.69146        41.421
  24976294.40945 131251294.53945     -2035.02345        39.694    24976295.36942
 102273769.96542     -1585.73442        33.613
  20861118.37749 109625953.69249       653.15649        48.494    20861117.35246
  85422838.41946       508.94946        41.720
  22055372.31347 115901847.30547     -2478.18047        45.466    22055371.69344
  90313146.07944     -1931.05144        37.428
  20913105.99949 109899160.49349       512.05949        48.045    20913104.83747
  85635717.84647       399.00447        45.043
  24089662.12844 126592031.78644      2719.35244        38.173    24089665.72543
  98643158.44743      2118.97343        36.392
  23003917.97146 120886424.10146      2274.95346        43.263    23003919.52045
  94197216.67745      1772.68845        39.602
  23675407.10147 124415107.18047     -3790.46947        44.960    23675408.09242
  96946852.04842     -2953.61342        32.815
 17  8 21  0  5 30.0000000  0 10G10G13G15G16G18G20G21G24G27G29
  22253513.14548 116943017.44348      2172.05148        46.045    22253515.61245
  91124449.55945      1692.50445        41.056
  23388872.57046 122909390.72446     -2877.72346        41.729    23388873.18343
  95773563.42743     -2242.38343        34.548
  21113660.80949 110953106.79849     -1642.07449        49.990    21113660.77646
  86457005.15746     -1279.54346        42.226
  24987942.10045 131312504.10445     -2045.46945        39.242    24987943.44442
 102321465.67542     -1593.87942        33.752
  20857411.27949 109606472.76349       645.59849        48.582    20857410.35746
  85407658.48946       503.05946        41.667
  22069533.80048 115976265.33348     -2483.03948        46.019    22069533.11244
  90371134.14444     -1934.84044        37.517
  20910210.08649 109883941.90749       502.35249        48.109    20910208.65847
  85623859.20547       391.44147        44.537
  24074152.87344 126510532.81944      2714.05544        37.607    24074157.23244
  98579652.90344      2114.85244        36.951
  22990973.49546 120818402.84146      2259.64546        43.116    22990975.48445
  94144213.12745      1760.75845        39.119
  23697055.75046 124528872.93746     -3793.89546        42.413    23697056.97343
  97035500.60343     -2956.28943        35.290
 17  8 21  0  6  0.0000000  0 10G10G13G15G16G18G20G21G24G27G29
  22241132.56248 116877958.97148      2164.93848        45.998    22241135.34445
  91073754.67945      1686.96145        40.715
  23405333.93746 122995895.11146     -2889.26646        42.834    23405334.31042
  95840969.39342     -2251.37942        33.796
  21123085.61849 111002633.65049     -1659.67649        50.135    21123085.59146
  86495597.50646     -1293.25846        41.875
  24999647.96844 131374018.05644     -2055.35944        38.640    24999648.46742
 102369398.63842     -1601.58242        33.873
  20853747.17749 109587217.79649       637.96949        48.389    20853746.09746
  85392654.62046       497.11746        41.655
  22083720.95248 116050818.91148     -2487.33248        45.886    22083720.67144
  90429227.82444     -1938.18444        38.568
  20907371.27849 109869023.61649       492.32449        48.070    20907369.75447
  85612234.56347       383.62547        44.384
  24058674.20045 126429191.44745      2708.85545        39.288    24058677.96743
  98516270.04143      2110.79343        34.909
  22978116.10946 120750838.24346      2244.12546        43.212    22978118.59145
  94091565.41445      1748.66445        39.401
  23718723.71447 124642737.83747     -3797.05547        45.322    23718724.88842
  97124226.45142     -2958.74642        34.263
 17  8 21  0  6 30.0000000  0 10G10G13G15G16G18G20G21G24G27G29
  22228792.78348 116813113.90848      2157.93048        46.312    22228795.73445
  91023226.08445      1681.50045        40.349
  23421862.75646 123082753.15346     -2900.97746        43.296    23421862.75842
  95908650.95842     -2260.50442        34.142
  21132611.00449 111052689.02549     -1677.27749        50.146    21132610.99046
  86534601.69446     -1306.97346        41.397
  25011411.17044 131435833.73344     -2065.54744        37.723    25011411.67942
 102417566.70142     -1609.51642        33.700
  20850125.91049 109568188.12749       630.55149        48.563    20850124.78146
  85377826.31546       491.33646        41.570
  22097933.71648 116125507.08648     -2491.91848        45.955    22097933.44744
  90487426.39944     -1941.75844        37.875
  20904589.66849 109854406.78249       482.23049        47.929    20904588.25447
  85600844.83647       375.76247        44.604
  24043226.44445 126348011.30945      2703.13745        38.942    24043229.28742
  98453012.82742      2106.34042        33.031
  22965346.24547 120683732.58047      2229.34847        43.418    22965348.78645
  94039275.28545      1737.15245        39.019
  23740409.69246 124756699.48546     -3800.34846        42.887    23740411.00141
  97213027.65241     -2961.31241        31.688
 17  8 21  0  7  0.0000000  0 10G10G13G15G16G18G20G21G24G27G29
  22216493.96648 116748482.45748      2150.87548        47.029    22216496.61245
  90972863.93245      1676.00445        40.631
  23438458.55347 123169962.29847     -2912.78147        43.950    23438457.51642
  95976606.15642     -2269.70342        34.264
  21142236.34149 111103270.65849     -1694.83649        49.789    21142236.52246
  86574015.95246     -1320.65646        41.864
  25023230.56044 131497947.73144     -2074.84044        37.109    25023231.71241
 102465967.16841     -1616.76241        15.132
  20846547.53949 109549383.53049       623.07449        48.464    20846546.46546
  85363173.38046       485.50846        41.729
  22112171.71547 116200329.29947     -2496.22747        44.907    22112171.60344
  90545729.41144     -1945.11344        38.242
  20901865.61949 109840092.47749       472.14549        47.822    20901864.32547
  85589690.83247       367.90247        44.390
  24027809.56044 126266995.14544      2697.54744        37.180    24027812.31343
  98389883.38643      2101.98443        35.849
  22952664.09947 120617088.09747      2214.02347        43.575    22952666.73245
  93987344.54145      1725.21145        40.310
  23762113.72047 124870755.31647     -3803.18047        43.591    23762114.84243
  97301902.25543     -2963.52043        35.093
 17  8 21  0  7 30.0000000  0 10G10G13G15G16G18G20G21G24G27G29
  22204235.84448 116684064.73148      2143.82048        47.194    22204238.37145
  90922668.33045      1670.50845        40.122
  23455120.28346 123257519.83646     -2924.45346        43.265    23455118.92741
  96044832.80641     -2278.79741        31.758
  21151961.33249 111154376.56049     -1712.19149        49.863    21151961.58246
  86613838.72446     -1334.18046        41.895
  25035106.57643 131560357.70943     -2085.08643        35.481    25035107.97643
 102514598.24643     -1624.74643        35.566
  20843011.87149 109530803.32649       615.61349        48.739    20843010.65046
  85348695.31046       479.69546        42.056
  22126435.04247 116275284.30847     -2500.59047        45.001    22126435.11945
  90604135.88945     -1948.51645        39.227
  20899199.64049 109826082.79649       461.87149        47.888    20899198.41247
  85578774.20647       359.89547        44.515
  24012424.30044 126186146.63544      2691.98444        37.779    24012427.54044
  98326884.62644      2097.65244        37.744
  22940070.59647 120550907.07047      2198.43847        45.136    22940072.89644
  93935774.91144      1713.06644        38.217
  23783834.77746 124984902.75446     -3806.31246        41.288    23783836.41842
  97390848.22642     -2965.96542        33.615
 17  8 21  0  8  0.0000000  0 10G10G13G15G16G18G20G21G24G27G29
  22192018.40048 116619860.90448      2136.58248        46.918    22192020.95445
  90872639.39945      1664.86745        40.773
  23471847.58046 123345422.98446     -2935.73846        41.977    23471846.49943
  96113328.73443     -2287.59043        35.130
  21161785.86549 111206004.97249     -1729.65649        49.912    21161786.03946
  86654068.64746     -1347.78946        41.748
  25047038.44143 131623060.53743     -2094.98443        36.367    25047039.99442
 102563457.56842     -1632.45742        34.008
  20839519.03049 109512447.27549       608.07049        48.685    20839517.61146
  85334391.89846       473.81646        41.920
  22140723.40747 116350371.28347     -2505.00847        44.622    22140723.78244
  90662645.20544     -1951.95744        38.811
  20896591.97249 109812378.83549       451.60949        47.906    20896590.62847
  85568095.79547       351.89847        44.753
  23997071.30745 126105468.24945      2686.52745        38.926    23997075.01843
  98264018.42143      2093.39543        35.628
  22927565.88047 120485191.69447      2182.67247        45.072    22927567.67445
  93884568.12245      1700.78145        39.934
  23805573.46747 125099139.15647     -3809.31247        44.857    23805575.12142
  97479863.54942     -2968.29742        34.341
 17  8 21  0  8 30.0000000  0 10G10G13G15G16G18G20G21G24G27G29
  22179841.60348 116555871.09148      2129.32848        47.176    22179844.20046
  90822777.24346      1659.21546        41.182
  23488640.13046 123433669.12746     -2947.36346        41.517    23488639.54143
  96182091.95743     -2296.64843        35.499
  21171709.33049 111258153.10149     -1746.93849        49.641    21171709.39846
  86694703.55246     -1361.25446        41.690
  25059025.40444 131686053.33844     -2104.45344        37.518    25059026.99041
 102612542.77041     -1639.83641        27.755
  20836068.67649 109494315.00149       600.60249        48.740    20836067.28446
  85320262.85546       467.99646        42.024
  22155036.85747 116425589.64847     -2509.41447        44.777    22155036.92444
  90721256.90644     -1955.39144        38.035
  20894042.59449 109798981.14849       441.43449        48.076    20894041.07147
  85557656.04247       343.97347        44.507
  23981752.28645 126024963.86345      2680.48445        39.704    23981755.39844
  98201287.72944      2088.68844        38.089
  22915149.70147 120419944.16447      2167.14547        43.985    22915151.36545
  93833725.88745      1688.68045        40.178
  23827328.34846 125213461.68446     -3812.19946        43.085    23827330.55942
  97568945.96942     -2970.54742        32.661
 17  8 21  0  9  0.0000000  0 10G10G13G15G16G18G20G21G24G27G29
  22167705.48748 116492095.45448      2122.18848        47.179    22167708.32745
  90773081.96445      1653.64845        40.934
  23505497.61946 123522255.43346     -2958.20346        43.198    23505497.53542
  96251120.20342     -2305.09842        32.872
  21181731.36349 111310819.00149     -1764.06249        49.675    21181731.35746
  86735741.91846     -1374.59846        41.696
  25071067.46444 131749333.07744     -2114.38744        36.988    25071068.78241
 102661851.68541     -1647.57841        26.468
  20832660.74149 109476406.00949       593.27349        48.728    20832659.44246
  85306307.80146       462.28946        41.892
  22169375.03747 116500938.13347     -2513.66047        44.501    22169374.63144
  90779969.99444     -1958.69944        38.036
  20891551.74149 109785891.18449       431.09849        48.067    20891550.15847
  85547456.07147       335.91847        44.154
  23966466.50244 125944636.21444      2674.14144        38.754    23966469.87743
  98138694.79643      2083.74243        36.383
  22902822.62347 120355166.68347      2151.48447        44.215    22902824.91145
  93783249.97945      1676.47745        38.899
  23849099.09747 125327867.69947     -3815.06647        43.359    23849101.12443
  97658093.41543     -2972.78143        34.668
 17  8 21  0  9 30.0000000  0 10G10G13G15G16G18G20G21G24G27G29
  22155610.20848 116428534.13748      2115.03948        47.136    22155613.02845
  90723553.68445      1648.07845        41.109
  23522419.48646 123611179.10646     -2969.83646        43.024    23522419.38443
  96320411.35743     -2314.16043        34.857
  21191851.53249 111364000.70949     -1781.33249        49.680    21191851.61046
  86777182.20546     -1388.05546        42.023
  25083163.27044 131812896.78444     -2123.57044        37.558    25083163.89041
 102711381.78741     -1654.73441        31.036
  20829295.08149 109458719.73049       585.82849        48.676    20829293.88846
  85292526.29746       456.48446        42.001
  22183738.03047 116576415.67847     -2518.14147        44.768    22183737.49443
  90838783.66643     -1962.19143        36.579
  20889119.67049 109773110.38649       420.86349        47.935    20889118.10647
  85537497.00747       327.94147        44.826
  23951214.21043 125864488.47043      2668.85943        36.385    23951218.42244
  98076242.11744      2079.63344        36.772
  22890585.71147 120290861.48847      2135.58247        43.669    22890588.13345
  93733142.04445      1664.08645        41.014
  23870885.55547 125442354.34447     -3817.62547        43.684    23870887.14142
  97747303.71042     -2974.77742        34.317
 17  8 21  0 10  0.0000000  0 10G10G13G15G16G18G20G21G24G27G29
  22143555.67848 116365187.25348      2108.04348        46.789    22143558.42546
  90674192.51346      1642.62946        42.320
  23539405.02046 123700437.76246     -2980.73046        42.640    23539404.82342
  96389963.51842     -2322.64842        34.133
  21202069.38549 111417696.05149     -1798.37949        49.759    21202069.48446
  86819022.71846     -1401.33646        42.108
  25095312.97045 131876741.54745     -2132.63345        39.470    25095313.78941
 102761130.89341     -1661.80141        28.859
  20825971.68249 109441255.63549       578.41449        48.610    20825970.51646
  85278917.91146       450.71146        41.946
  22198125.30947 116652021.25547     -2522.16047        44.603    22198124.62844
  90897697.10144     -1965.32444        37.958
  20886746.67749 109760640.03249       410.39849        48.020    20886745.17947
  85527779.85047       319.78947        44.756
  23935997.66845 125784524.38845      2662.63745        39.284    23936001.48044
  98013932.47644      2074.78144        37.292
  22878438.81747 120227030.68347      2119.64847        43.878    22878441.44245
  93683403.78945      1651.67245        40.284
  23892686.64647 125556919.08247     -3820.04747        43.409    23892687.66942
  97836574.86742     -2976.66442        33.211
 17  8 21  0 10 30.0000000  0 10G10G13G15G16G18G20G21G24G27G29
  22131541.94948 116302054.97548      2100.80148        47.345    22131544.77745
  90624998.56645      1636.98445        41.061
  23556453.85947 123790028.35447     -2991.69947        43.755    23556453.13542
  96459774.34642     -2331.19942        33.553
  21212384.62049 111471902.70549     -1815.41449        49.582    21212384.72746
  86861261.66446     -1414.61346        42.423
  25107515.42244 131940864.86144     -2141.89544        38.099    25107515.98441
 102811097.09041     -1669.01241        25.170
  20822690.62749 109424013.37149       571.06249        48.924    20822689.28146
  85265482.38546       444.98046        41.962
  22212536.89447 116727754.12047     -2526.64147        45.545    22212536.09743
  90956709.70243     -1968.81243        36.561
  20884433.09249 109748482.23149       400.12149        48.134    20884431.61747
  85518306.24147       311.78147        44.604
  23920817.06045 125704746.51345      2656.42245        40.990    23920820.29644
  97951767.91044      2069.93844        37.187
  22866382.69447 120163676.43747      2104.01247        43.758    22866385.49345
  93634036.88245      1639.48845        39.904
  23914502.37446 125671559.36846     -3822.72346        43.176    23914503.32943
  97925904.88943     -2978.75443        34.481
 17  8 21  0 11  0.0000000  0 10G10G13G15G16G18G20G21G24G27G29
  22119569.18348 116239137.43148      2093.86748        47.137    22119571.93046
  90575971.92046      1631.58246        41.721
  23573565.04646 123879948.32946     -3002.74246        42.552    23573564.33042
  96529841.85242     -2339.80542        32.472
  21222796.71549 111526618.62149     -1832.27049        49.735    21222796.73946
  86903897.43646     -1427.74646        41.700
  25119770.09244 132005263.38644     -2150.96944        38.554    25119770.76542
 102861277.70242     -1676.08642        33.415
  20819451.70149 109406992.57449       563.71149        48.769    20819450.40346
  85252219.43446       439.25446        42.030
  22226972.66747 116803613.52847     -2530.63347        45.316    22226971.79943
  91015820.91843     -1971.92643        35.632
  20882179.24449 109736637.85649       389.70749        48.259    20882177.68347
  85509076.85447       303.66447        44.744
  23905672.16945 125625158.57345      2649.88745        39.633    23905675.63644
  97889751.35444      2064.84444        37.878
  22854418.07547 120100800.99047      2087.85947        44.214    22854420.71646
  93585043.02546      1626.89846        41.489
  23936331.70146 125786272.69146     -3825.14146        43.135    23936333.31142
  98015291.79842     -2980.63342        33.063
 17  8 21  0 11 30.0000000  0 10G10G13G15G16G18G20G21G24G27G29
  22107637.11848 116176434.70748      2086.40248        46.742    22107639.89646
  90527112.67746      1625.76646        41.360
  23590738.26546 123970194.88246     -3013.57446        42.096    23590737.59142
  96600163.82442     -2348.24242        32.989
  21233305.28349 111581841.64349     -1849.26649        49.695    21233305.25546
  86946928.36246     -1440.98846        41.349
  25132076.64444 132069934.14144     -2160.18844        37.933    25132076.99441
 102911670.48241     -1683.26641        31.051
  20816254.72849 109390192.87249       556.37149        48.464    20816253.54446
  85239128.75446       433.53146        42.315
  22241432.27647 116879598.44847     -2535.00047        44.887    22241431.61344
  91075029.94344     -1975.32844        37.426
  20879985.05449 109725107.03149       379.10549        48.231    20879983.50847
  85500091.79547       295.40247        44.605
  23890563.33644 125545763.44844      2643.00044        37.009    23890567.18744
  97827885.07244      2059.47744        37.633
  22842544.70347 120038406.40947      2071.82447        44.286    22842547.47845
  93536423.89545      1614.40645        39.696
  23958174.40947 125901055.88647     -3827.09047        44.623    23958175.65242
  98104733.18042     -2982.15242        32.532
 17  8 21  0 12  0.0000000  0 10G10G13G15G16G18G20G21G24G27G29
  22095745.94948 116113946.98248      2079.16448        47.039    22095748.68846
  90478420.96646      1620.12546        41.295
  23607972.72545 124060765.29745     -3024.16445        40.982    23607972.94342
  96670738.13542     -2356.49642        33.777
  21243909.80149 111637569.41449     -1866.06649        49.452    21243909.88846
  86990352.59046     -1454.08246        41.148
  25144434.30244 132134874.27544     -2169.42644        37.347    25144434.98841
 102962273.14041     -1690.46941        23.807
  20813099.77649 109373613.61649       548.98849        48.373    20813098.62346
  85226209.85446       427.78146        42.382
  22255915.53647 116955708.05147     -2538.95347        45.027    22255914.84644
  91134336.11344     -1978.41044        37.085
  20877850.95949 109713891.95249       368.54349        48.263    20877849.37747
  85491352.77047       287.17247        44.587
  23875491.72845 125466564.01945      2636.84045        39.733    23875495.67843
  97766171.31843      2054.67643        34.705
  22830763.51947 119976494.80747      2055.59847        44.755    22830766.13245
  93488181.10745      1601.76245        40.130
  23980029.79346 126015906.86846     -3829.47346        42.559    23980030.81643
  98194227.36743     -2984.00843        34.822
 17  8 21  0 12 30.0000000  0 11G10G13G15G16G18G20G21G24G27G29G32
  22083895.80448 116051674.33948      2072.04748        47.194    22083898.48445
  90429896.85645      1614.57845        40.920
  23625268.89646 124151656.96646     -3034.83246        41.787    23625268.59442
  96741562.81442     -2364.80942        33.097
  21254609.89549 111693799.52849     -1882.70749        49.630    21254610.05146
  87034168.25546     -1467.04746        41.514
  25156842.73344 132200080.93444     -2178.24644        37.631    25156843.44141
 103013083.44641     -1697.34041        28.816
  20809986.61049 109357254.38949       541.67249        48.334    20809985.56246
  85213462.41346       422.07846        42.376
  22270422.36147 117031941.56447     -2543.36347        45.554    22270421.35243
  91193738.83043     -1981.84443        36.371
  20875777.14849 109702994.02349       357.91449        47.921    20875775.55747
  85482860.87647       278.89147        44.747
  23860459.10845 125387563.68045      2629.73845        41.066    23860462.53643
  97704612.64243      2049.14543        34.932
  22819074.87948 119915068.30848      2039.45348        46.016    22819077.07845
  93440316.31945      1589.18045        39.422
  24001897.66646 126130822.83846     -3831.40246        43.323    24001898.37542
  98283772.19342     -2985.51642        32.341
  25043042.26545 131602076.29345      3758.17645        40.292    25043045.75943
 102547083.86243      2928.44943        35.230
 17  8 21  0 13  0.0000000  0 11G10G13G15G16G18G20G21G24G27G29G32
  22072086.69348 115989616.93448      2065.05548        47.161    22072089.27546
  90381540.44746      1609.12946        41.635
  23642625.67746 124242867.07946     -3045.50846        42.551    23642625.17742
  96812635.58842     -2373.12542        33.618
  21265405.19949 111750529.80949     -1899.32449        49.469    21265405.50445
  87078373.66545     -1479.99645        41.027
  25169301.20244 132265551.19944     -2186.87944        37.304    25169302.10141
 103064099.23341     -1704.06641        28.728
  20806915.32649 109341114.80049       534.32849        48.372    20806914.42346
  85200886.11746       416.35546        42.222
  22284952.59647 117108297.88547     -2547.22347        44.858    22284951.46144
  91253237.25644     -1984.85244        38.230
  20873763.81449 109692414.56349       347.26249        47.946    20873762.23847
  85474617.13647       270.59047        44.780
  23845464.73145 125308765.87345      2623.02745        40.433    23845467.75243
  97643211.75843      2043.91443        35.730
  22807478.66047 119854128.98547      2023.17647        44.839    22807480.77945
  93392831.14745      1576.49645        39.760
  24023777.35647 126245800.58947     -3833.70347        43.637    24023778.39442
  98373365.18842     -2987.30942        33.917
  25021591.99445 131489354.36345      3756.46945        39.215    25021596.03342
 102459248.65242      2927.11742        34.310
 17  8 21  0 13 30.0000000  0 11G10G13G15G16G18G20G21G24G27G29G32
  22060318.46348 115927774.88248      2057.87948        47.123    22060321.25546
  90333351.84946      1603.53946        41.266
  23660042.76646 124334392.77446     -3056.08646        42.798    23660042.05642
  96883954.31642     -2381.36742        33.376
  21276295.31149 111807758.18249     -1915.81649        49.740    21276295.72146
  87122967.19446     -1492.84846        41.359
  25181809.19444 132331281.66644     -2195.33644        37.214    25181810.57842
 103115317.72942     -1710.66442        32.296
  20803885.77449 109325194.39849       527.08249        48.558    20803884.93146
  85188480.61946       410.71146        42.113
  22299505.99847 117184776.35247     -2551.28547        45.122    22299505.03744
  91312830.85544     -1988.02044        37.593
  20871811.31649 109682154.77249       336.62549        48.039    20871809.83047
  85466622.49447       262.30147        44.565
  23830508.94744 125230173.63744      2616.46944        38.531    23830511.95244
  97581971.08744      2038.80544        37.201
  22795975.31847 119793678.92847      2006.88347        44.643    22795977.20645
  93345727.22545      1563.80145        39.457
  24045668.13447 126360837.98647     -3835.47347        43.386    24045669.82142
  98463004.63942     -2988.68442        33.542
  25000151.05445 131376681.60845      3754.92245        39.607    25000154.65143
 102371451.86343      2925.91043        34.584
 17  8 21  0 14  0.0000000  0 11G10G13G15G16G18G20G21G24G27G29G32
  22048591.18348 115866148.27248      2050.59848        46.977    22048594.20846
  90285331.12046      1597.86346        41.332
  23677519.23546 124426231.48446     -3066.30146        42.554    23677518.60343
  96955516.90143     -2389.32843        35.018
  21287279.97449 111865482.24849     -1932.37549        49.729    21287280.20346
  87167946.97746     -1505.75046        41.250
  25194366.41344 132397269.78544     -2203.80944        38.042    25194367.09541
 103166737.00941     -1717.25841        27.869
  20800897.90449 109309492.92749       519.71149        48.493    20800897.13946
  85176245.71546       404.96546        42.224
  22314082.49647 117261376.11047     -2555.47347        44.748    22314081.65344
  91372518.97144     -1991.28144        37.058
  20869919.87749 109672215.62549       325.89549        47.971    20869918.41247
  85458877.70747       253.94147        44.541
  23815591.97744 125151789.94044      2609.53144        38.346    23815596.11343
  97520892.94743      2033.39843        36.602
  22784565.25147 119733720.19047      1990.56247        43.896    22784566.82744
  93299006.15244      1551.08644        38.039
  24067569.86546 126475932.06546     -3837.46946        41.715    24067571.78141
  98552688.27441     -2990.23841        31.988
  24978719.86645 131264060.32645      3753.21945        39.808    24978723.69643
 102283695.12343      2924.58243        34.831
 17  8 21  0 14 30.0000000  0 11G10G13G15G16G18G20G21G24G27G29G32
  22036904.91348 115804737.23948      2043.36748        46.866    22036908.07146
  90237478.39446      1592.23046        42.137
  23695054.43746 124518380.41046     -3076.84846        42.041    23695054.07041
  97027321.21641     -2397.54741        31.086
  21298358.62149 111923699.92249     -1948.77049        49.629    21298358.70946
  87213311.39046     -1518.52346        41.632
  25206972.23744 132463512.59044     -2212.42244        38.331    25206972.77741
 103218354.72241     -1723.97741        31.561
  20797951.52349 109294009.80549       512.50449        48.479    20797950.80646
  85164180.95546       399.35246        41.833
  22328681.50247 117338095.96747     -2559.35947        44.330    22328680.52744
  91432300.66344     -1994.30944        37.913
  20868089.73149 109662598.36749       315.10949        47.914    20868088.24247
  85451383.74247       245.53547        44.206
  23800716.30344 125073618.26144      2602.11744        38.847    23800720.30943
  97459980.01843      2027.62143        36.347
  22773249.03147 119674254.82547      1974.02747        43.641    22773250.60045
  93252669.52645      1538.19945        39.126
  24089481.66746 126591080.41646     -3839.17646        42.867    24089484.04843
  98642414.12043     -2991.57443        34.832
  24957298.76545 131151492.54445      3751.19545        39.734    24957302.46242
 102195980.10442      2923.01642        33.352
 17  8 21  0 15  0.0000000  0 11G10G13G15G16G18G20G21G24G27G29G32
  22025259.94048 115743541.93548      2036.17648        47.362    22025263.00646
  90189793.76546      1586.62946        42.275
  23712648.05145 124610836.76145     -3087.10945        40.435    23712648.30243
  97099365.11143     -2405.54343        34.978
  21309530.75849 111982408.73149     -1965.11349        49.879    21309530.78046
  87259058.50846     -1531.26246        41.187
  25219625.70145 132530007.11445     -2220.60245        38.900    25219626.80041
 103270168.68141     -1730.34441        30.624
  20795046.54949 109278744.71849       505.27749        48.341    20795045.93346
  85152286.08346       393.71946        42.089
  22343303.53147 117414935.38447     -2563.36747        44.560    22343302.51844
  91492175.50644     -1997.43444        36.894
  20866320.90849 109653303.56149       304.42649        47.885    20866319.50947
  85444141.03047       237.21147        44.433
  23785882.04845 124995661.20445      2595.05145        40.701    23785885.43944
  97399234.27244      2022.11344        37.710
  22762027.14747 119615284.84747      1957.31647        43.856    22762029.08345
  93206718.93045      1525.18045        39.315
  24111403.73347 126706280.35247     -3840.85547        43.679    24111405.65642
  98732180.25342     -2992.87942        34.021
  24935888.18745 131038980.48045      3749.25845        39.636    24935892.17342
 102108308.41242      2921.49242        34.158
 17  8 21  0 15 30.0000000  0 11G10G13G15G16G18G20G21G24G27G29G32
  22013656.10248 115682562.41348      2029.17648        47.212    22013658.81746
  90142277.27146      1581.17246        41.905
  23730299.18645 124703598.09145     -3096.77345        40.930    23730299.97142
  97171646.60942     -2413.07442        33.371
  21320795.76549 112041606.16849     -1981.46549        49.650    21320795.78646
  87305186.37646     -1544.00046        41.591
  25232326.39745 132596750.13745     -2228.75445        39.353    25232327.62041
 103322176.14241     -1736.69541        29.934
  20792183.01649 109263697.01749       497.94149        48.318    20792182.56946
  85140560.61246       388.00446        43.012
  22357948.29747 117491893.27447     -2567.16847        45.450    22357947.15244
  91552142.68644     -2000.39544        37.432
  20864614.05349 109644334.34349       293.62549        47.781    20864612.75447
  85437152.02947       228.79747        44.957
  23771089.30345 124917922.62845      2587.64845        40.301    23771092.67844
  97338658.80944      2016.34844        38.704
  22750900.10447 119556812.30447      1940.74247        43.816    22750902.45745
  93161155.93845      1512.26245        40.154
  24133335.07046 126821529.57946     -3842.59446        43.189    24133336.55741
  98821984.78041     -2994.23041        32.101
  24914488.61445 130926526.17445      3747.52345        40.009    24914493.10341
 102020681.80841      2920.14841        28.099
 17  8 21  0 16  0.0000000  0 11G10G13G15G16G18G20G21G24G27G29G32
  22002093.31948 115621798.82048      2021.80948        47.767    22002095.85346
  90094929.04946      1575.43446        41.367
  23748008.54046 124796661.39246     -3107.03146        42.407    23748009.34241
  97244163.42741     -2421.06641        29.695
  21332153.14449 112101290.00449     -1997.56649        49.850    21332153.26646
  87351693.24446     -1556.54746        41.304
  25245073.93843 132663739.02143     -2236.92643        35.767    25245075.30041
 103374375.26141     -1743.06641        16.473
  20789360.84749 109248866.18449       490.70749        48.488    20789360.38446
  85129004.12646       382.36746        42.569
  22372615.33747 117568968.90047     -2571.16447        45.022    22372614.02443
  91612201.60143     -2003.50843        36.439
  20862969.17248 109635690.76748       282.66448        47.684    20862967.89847
  85430416.77947       220.25447        44.886
  23756338.20045 124840405.42045      2580.30545        39.948    23756341.45543
  97278255.80843      2010.62543        35.359
  22739868.38547 119498839.17147      1924.02747        44.761    22739870.66144
  93115982.09644      1499.23844        38.302
  24155274.75646 126936824.98046     -3843.89146        41.122    24155276.63444
  98911825.23144     -2995.24244        36.864
  24893100.57044 130814131.86144      3745.47744        38.759    24893105.78442
 101933101.92342      2918.55142        33.894
 17  8 21  0 16 30.0000000  0 11G10G13G15G16G18G20G21G24G27G29G32
  21990571.52349 115561251.25149      2014.60549        47.934    21990573.91146
  90047749.12746      1569.82046        41.246
  23765775.25946 124890023.86146     -3116.90646        42.932    23765775.02142
  97316913.41342     -2428.76242        32.519
  21343602.78749 112161458.17149     -2013.57449        49.738    21343602.85745
  87398577.52745     -1569.02345        40.777
  25257867.65144 132730970.33644     -2245.10944        38.885    25257868.73441
 103426763.26641     -1749.43841        30.387
  20786579.90249 109234251.96149       483.57449        48.638    20786579.35246
  85117616.42946       376.80946        42.247
  22387304.62747 117646161.43847     -2575.09047        44.686    22387302.93444
  91672351.60244     -2006.56644        36.887
  20861386.60448 109627374.54448       271.69148        47.716    20861385.42447
  85423936.60747       211.70347        45.083
  23741629.56745 124763112.27145      2572.78545        39.035    23741632.73543
  97218027.42743      2004.76643        35.971
  22728932.21748 119441367.45448      1907.25848        45.557    22728934.16645
  93071198.95845      1486.17245        39.298
  24177222.84546 127052164.12546     -3845.11746        42.602    24177225.02241
  99001699.78541     -2996.19941        31.858
  24871724.27144 130701799.64144      3743.54344        38.587    24871729.80843
 101845570.43343      2917.04343        36.086
 17  8 21  0 17  0.0000000  0 11G10G13G15G16G18G20G21G24G27G29G32
  21979090.80648 115500919.79348      2007.50448        47.338    21979093.02146
  90000737.62746      1564.28546        41.413
  23783598.51646 124983683.06746     -3126.72346        42.960    23783597.56142
  97389894.59542     -2436.41442        32.346
  21355144.11549 112222108.04949     -2029.74649        49.731    21355144.03246
  87445837.17146     -1581.62546        41.158
  25270706.96544 132798441.70444     -2252.75844        38.175    25270707.99741
 103479338.28741     -1755.40241        25.281
  20783840.18949 109219853.97349       476.28549        48.575    20783839.49346
  85106397.22746       371.12946        42.945
  22402016.12247 117723470.00147     -2578.87147        44.663    22402014.10443
  91732592.05443     -2009.51243        35.326
  20859866.43549 109619385.80549       260.74249        47.991    20859865.41547
  85417711.61847       203.17247        44.655
  23726964.55445 124686047.15345      2564.80545        40.800    23726967.52943
  97157976.73743      1998.54743        36.304
  22718091.82447 119384399.12047      1890.27047        44.907    22718093.33645
  93026808.07745      1472.93445        39.971
  24199179.21946 127167544.27146     -3846.85546        42.569    24199181.22041
  99091606.33641     -2997.55541        31.124
  24850360.35445 130589531.72245      3740.95745        40.172    24850365.53542
 101758089.05142      2915.02742        32.692
 17  8 21  0 17 30.0000000  0 10G10G13G15G18G20G21G24G27G29G32
  21967651.24948 115440804.60148      2000.14148        47.371    21967653.27146
  89953894.63246      1558.54746        41.247
  23801477.23345 125077636.00145     -3136.85545        40.667    23801476.56142
  97463104.66342     -2444.30542        32.705
  21366776.71049 112283237.49449     -2045.63349        49.701    21366776.45246
  87493470.50646     -1594.00446        41.562
  20781141.48149 109205671.78449       469.19949        48.696    20781140.61946
  85095346.17046       365.60546        42.436
  22416748.98147 117800893.73847     -2582.62947        44.011    22416747.37043
  91792922.22243     -2012.44143        36.306
  20858409.01149 109611726.51649       249.80149        47.952    20858408.05247
  85411743.34147       194.64847        44.682
  23712343.92346 124609213.00946      2557.18846        41.633    23712346.81043
  97098106.01443      1992.60943        36.576
  22707347.40148 119327936.11348      1873.62548        45.744    22707348.55945
  92982810.93845      1459.96545        39.912
  24221142.73946 127282962.95946     -3847.87946        41.635    24221144.74843
  99181542.89743     -2998.35243        35.905
  24829008.96145 130477330.19545      3739.05945        40.529    24829014.14342
 101670659.38642      2913.55542        32.799
 17  8 21  0 18  0.0000000  0 10G10G13G15G18G20G21G24G27G29G32
  21956252.88248 115380905.75348      1992.79748        47.519    21956254.77046
  89907220.20946      1552.82446        41.542
  23819410.98945 125171880.04345     -3146.37945        40.258    23819411.21142
  97536541.51942     -2451.72742        32.364
  21378499.96849 112344843.88749     -2061.48049        49.623    21378499.76846
  87541475.47146     -1606.35246        41.393
  20778483.62549 109191704.95649       461.97749        48.349    20778482.77846
  85084462.94346       359.98046        42.397
  22431503.79147 117878431.79747     -2586.56247        43.785    22431502.67744
  91853341.46044     -2015.50844        38.156
  20857014.53348 109604398.00248       238.85248        47.760    20857013.61647
  85406032.80947       186.11347        45.122
  23697767.61145 124532612.52445      2549.44145        40.359    23697770.34844
  97038417.33844      1986.57444        37.674
  22696699.30548 119271980.36348      1856.48848        45.708    22696700.60045
  92939209.08045      1446.60945        39.675
  24243112.59446 127398417.12946     -3848.89146        41.644    24243115.04842
  99271507.07942     -2999.14542        32.909
  24807670.90945 130365197.27545      3736.52045        40.813    24807676.19543
 101583283.18143      2911.57443        35.724
 17  8 21  0 18 30.0000000  0 10G10G13G15G18G20G21G24G27G29G32
  21944895.56348 115321223.31548      1985.80148        47.392    21944897.68446
  89860714.42846      1547.37546        41.684
  23837399.36545 125266412.58345     -3155.84045        39.019    23837400.41141
  97610203.14841     -2459.10241        28.909
  21390313.57849 112406925.06249     -2077.12149        49.693    21390313.56146
  87589850.40246     -1618.53946        41.176
  20775866.57849 109177953.33449       454.86349        48.271    20775865.88246
  85073747.39246       354.43846        42.776
  22446280.55847 117956083.45647     -2590.33247        44.681    22446279.39743
  91913849.27043     -2018.44543        35.758
  20855683.07849 109597400.99849       227.66449        48.010    20855682.17447
  85400580.60447       177.39847        45.060
  23683235.60344 124456249.40544      2541.55544        38.030    23683238.89243
  96978913.68543      1980.43443        35.328
  22686148.03047 119216533.80747      1839.74247        45.300    22686149.67745
  92896003.98845      1433.56245        40.251
  24265089.23746 127513904.60446     -3850.18846        41.723    24265091.60442
  99361497.21642     -3000.15242        34.001
  24786346.29645 130253135.01445      3734.21945        40.661    24786351.41441
 101495962.05041      2909.78141        31.804
 17  8 21  0 19  0.0000000  0 10G10G13G15G18G20G21G24G27G29G32
  21933579.33448 115261757.40848      1978.64848        47.341    21933581.95846
  89814377.38646      1541.80146        42.119
  23855442.68745 125361230.74845     -3165.49245        40.741    23855443.28741
  97684087.42941     -2466.62141        32.117
  21402217.16749 112469478.59749     -2092.95349        49.462    21402217.07845
  87638593.40945     -1630.87545        40.945
  20773290.38449 109164416.21349       447.67249        48.220    20773289.64446
  85063198.99246       348.83246        42.572
  22461078.58847 118033847.93947     -2594.01247        44.408    22461077.57844
  91974444.94644     -2021.31244        37.028
  20854415.01749 109590736.94849       216.55549        48.036    20854414.10747
  85395387.83947       168.74247        45.038
  23668749.32545 124380126.81145      2533.47345        40.160    23668753.27144
  96919597.44044      1974.13344        37.255
  22675693.89747 119161598.36547      1822.63347        44.853    22675695.87345
  92853197.15145      1420.23045        39.199
  24287072.18347 127629422.56747     -3851.02747        43.403    24287074.09542
  99451511.12442     -3000.80542        32.277
  24765035.35145 130141145.57945      3731.93045        40.990    24765040.54143
 101408697.65743      2907.99643        35.970
 17  8 21  0 19 30.0000000  0 10G10G13G15G18G20G21G24G27G29G32
  21922304.49148 115202508.12448      1971.40248        47.340    21922307.45346
  89768209.14346      1536.15646        42.224
  23873539.96746 125456331.80046     -3174.81646        42.365    23873540.06042
  97758192.12042     -2473.88742        32.589
  21414210.09749 112532502.21349     -2108.59449        49.403    21414209.81346
  87687702.71446     -1643.06246        41.155
  20770754.93149 109151092.86949       440.60949        47.984    20770753.98846
  85052817.17746       343.32846        41.638
  22475897.99747 118111724.43847     -2597.93847        43.991    22475897.40244
  92035127.92044     -2024.37144        37.409
  20853210.77649 109584407.91149       205.41049        48.019    20853209.66547
  85390456.12747       160.05947        44.770
  23654310.30046 124304247.30746      2525.01246        41.428    23654313.90844
  96860470.59044      1967.53944        36.984
  22665337.32847 119107175.89147      1805.28147        44.978    22665339.59545
  92810790.06145      1406.71145        40.122
  24309060.32046 127744968.52546     -3851.89146        42.808    24309061.56242
  99541546.86742     -3001.47742        32.854
  24743738.76745 130029231.18345      3729.05945        39.950    24743743.38741
 101321491.73341      2905.76241        28.634
 17  8 21  0 20  0.0000000  0 10G10G13G15G18G20G21G24G27G29G32
  21911070.97748 115143475.57348      1964.10548        47.603    21911074.00746
  89722209.77746      1530.46946        42.589
  23891690.69046 125551712.82146     -3184.20346        42.862    23891690.40542
  97832514.98342     -2481.19942        32.380
  21426291.94449 112595993.22749     -2124.16449        49.287    21426291.78145
  87737176.21845     -1655.19545        41.101
  20768260.25849 109137983.21349       433.32849        48.243    20768259.14846
  85042601.85946       337.65646        41.962
  22490738.68547 118189711.95147     -2601.39547        44.388    22490737.87243
  92095897.39443     -2027.06243        36.311
  20852070.27749 109578414.24149       194.26649        48.061    20852068.90347
  85385785.73447       151.37147        44.704
  23639918.23945 124228614.44945      2517.01645        41.045    23639921.16343
  96801535.89743      1961.30943        35.385
  22655079.05447 119053268.27047      1788.26647        44.970    22655081.51645
  92768784.13945      1393.44945        39.847
  24331053.16246 127860539.67146     -3852.73446        42.860    24331053.94342
  99631602.22642     -3002.13342        32.517
  24722456.47945 129917393.85845      3726.53545        39.796    24722461.27642
 101234345.88742      2903.78942        33.334
 17  8 21  0 20 30.0000000  0 10G10G13G15G18G20G21G24G27G29G32
  21899878.75049 115084659.84049      1956.89849        47.783    21899881.64546
  89676379.34846      1524.85246        41.552
  23909894.32846 125647371.33246     -3193.22746        43.070    23909893.69541
  97907054.08241     -2488.23041        29.278
  21438462.37149 112659949.42149     -2139.61349        49.375    21438462.08846
  87787012.20746     -1667.23446        41.153
  20765806.22949 109125086.77149       426.28549        48.220    20765805.06046
  85032552.69746       332.16846        42.451
  22505600.17047 118267809.81147     -2605.10547        44.359    22505599.52144
  92156752.86544     -2029.95744        36.939
  20850993.69049 109572756.82349       182.89549        48.135    20850992.14947
  85381377.35347       142.51247        44.414
  23625573.04645 124153231.29545      2508.61345        39.926    23625575.98042
  96742795.79242      1954.76242        33.801
  22644919.20547 118999877.34247      1771.10947        44.925    22644921.54845
  92727180.84145      1380.08245        40.747
  24353050.46346 127976133.86146     -3853.52046        43.207    24353051.14842
  99721675.53542     -3002.75042        32.486
  24701189.06844 129805635.77244      3724.00844        37.635    24701194.10542
 101147261.77142      2901.82042        34.150
 17  8 21  0 21  0.0000000  0 10G10G13G15G18G20G21G24G27G29G32
  21888727.86149 115026061.01649      1949.59449        47.830    21888730.51746
  89630717.93446      1519.16046        41.622
  23928150.05246 125743304.56246     -3202.53946        41.640    23928149.58941
  97981807.24841     -2495.48841        28.961
  21450720.89649 112724368.10249     -2155.03949        49.736    21450720.43345
  87837208.58145     -1679.25445        40.203
  20763392.71049 109112403.23549       419.16049        48.425    20763391.49146
  85022669.42646       326.61346        42.472
  22520482.40046 118346017.24546     -2609.04746        43.063    22520482.48344
  92217693.67944     -2033.02744        38.665
  20849981.44649 109567437.36849       171.68049        48.047    20849979.79347
  85377232.32647       133.77347        44.506
  23611275.93845 124078101.04345      2499.97345        39.839    23611278.92443
  96684252.77243      1948.02743        36.250
  22634857.93648 118947004.96248      1753.81248        45.588    22634860.14845
  92685981.59645      1366.60545        39.448
  24375051.37747 128091747.72347     -3854.05547        44.255    24375052.00843
  99811764.19143     -3003.16843        35.275
  24679937.12244 129693959.12844      3721.00044        38.415    24679942.39743
 101060241.17843      2899.48043        35.751
 17  8 21  0 21 30.0000000  0 10G10G13G15G18G20G21G24G27G29G32
  21877618.16448 114967679.18748      1942.42648        47.734    21877620.73746
  89585225.60646      1513.57446        41.910
  23946457.23745 125839509.73345     -3211.44545        40.042    23946457.07343
  98056772.27943     -2502.43043        34.873
  21463066.87649 112789246.87949     -2170.20749        49.435    21463066.38745
  87887763.46245     -1691.07445        40.869
  20761019.72449 109099932.15649       412.14149        48.649    20761018.45046
  85012951.70146       321.14546        42.304
  22535385.82348 118424333.58248     -2612.25848        45.611    22535385.89243
  92278719.37243     -2035.52743        36.007
  20849033.64449 109562456.98549       160.47749        48.161    20849032.05147
  85373351.50647       125.04347        44.596
  23597027.89345 124003227.13845      2491.54745        41.085    23597031.01544
  96625909.51344      1941.46144        38.723
  22624895.74747 118894652.97447      1736.46147        45.440    22624897.73545
  92645187.85245      1353.08245        39.708
  24397055.23847 128207378.96647     -3854.45347        43.619    24397056.10941
  99901866.37441     -3003.47341        31.899
  24658701.63245 129582366.01245      3718.21945        40.580    24658706.81043
 100973285.66243      2897.30943        35.134
 17  8 21  0 22  0.0000000  0 10G10G13G15G18G20G21G24G27G29G32
  21866549.70248 114909514.39748      1935.29748        47.372    21866552.29446
  89539902.41846      1508.02046        42.084
  23964815.37245 125935984.03045     -3220.34845        39.652    23964815.64242
  98131946.99542     -2509.36342        34.167
  21475499.87549 112854583.62349     -2185.44949        49.248    21475499.57845
  87938675.20145     -1702.94945        40.232
  20758687.13049 109087673.25649       405.22349        48.447    20758685.70746
  85003399.31746       315.75446        42.704
  22550309.62147 118502757.90147     -2615.94547        43.938    22550309.31744
  92339829.22744     -2038.40244        37.119
  20848150.65649 109557817.13749       149.00849        47.937    20848148.99147
  85369736.04047       116.10547        44.421
  23582829.69446 123928612.27846      2483.06646        42.596    23582832.54743
  96567768.12243      1934.85543        36.053
  22615032.94247 118842823.16647      1718.97747        45.300    22615034.94645
  92604801.00945      1339.46145        40.414
  24419061.83346 128323025.43346     -3854.98846        42.932    24419062.97341
  99991980.41041     -3003.89841        30.623
  24637482.61846 129470858.54646      3715.41446        41.423    24637487.63941
 100886396.88841      2895.12941        32.152
 17  8 21  0 22 30.0000000  0 10G10G13G15G18G20G21G24G27G29G32
  21855522.52848 114851566.81048      1927.86748        47.554    21855525.01746
  89494748.47046      1502.23046        41.751
  23983224.18245 126032724.76945     -3229.41845        40.552    23983225.07541
  98207329.35141     -2516.43441        31.911
  21488019.80349 112920375.76349     -2200.59449        49.551    21488019.45145
  87989941.79445     -1714.75045        40.752
  20756394.72849 109075625.97349       398.00849        48.674    20756393.28446
  84994011.83146       310.13346        42.463
  22565253.59947 118581289.87747     -2619.53147        44.268    22565253.52644
  92401022.94044     -2041.19544        36.917
  20847332.60749 109553518.38549       137.65249        47.916    20847330.94747
  85366386.36347       107.25847        44.433
  23568681.04046 123854260.06846      2474.04746        41.137    23568683.35244
  96509831.33644      1927.82444        37.512
  22605269.80847 118791517.32347      1701.47347        45.424    22605271.67745
  92564822.44145      1325.82045        39.731
  24441070.31546 128438683.88646     -3855.52346        41.499    24441071.65742
 100082103.82442     -3004.30942        33.726
  24616280.49146 129359438.94346      3712.25846        41.726    24616285.11843
 100799576.54243      2892.66443        34.760
 17  8 21  0 23  0.0000000  0 10G10G13G15G18G20G21G24G27G29G32
  21844536.72048 114793836.45648      1920.78148        47.645    21844539.09146
  89449763.80046      1496.71146        41.966
  24001683.54346 126129729.22946     -3237.81246        42.042    24001684.54341
  98282917.17941     -2522.97341        30.284
  21500626.01949 112986620.50549     -2215.65649        49.675    21500625.52245
  88041561.07945     -1726.48845        40.609
  20754142.43249 109063789.50749       390.95349        48.590    20754141.02746
  84984788.62046       304.63746        42.401
  22580217.87247 118659927.72447     -2623.02047        43.535    22580218.10344
  92462299.16544     -2043.91444        37.678
  20846579.66349 109549561.83949       126.14849        47.847    20846578.18747
  85363303.34247        98.29347        45.109
  23554582.40145 123780173.37245      2465.32445        39.920    23554584.38543
  96452101.44143      1921.02743        34.775
  22595606.59747 118740737.18047      1683.94147        45.361    22595608.35445
  92525253.51345      1312.16045        39.806
  24463080.88246 128554351.94046     -3855.59846        43.101    24463082.34742
 100172234.68742     -3004.36342        34.051
  24595095.41846 129248109.21946      3709.44946        41.520    24595099.74742
 100712826.26742      2890.47742        33.188
 17  8 21  0 23 30.0000000  0 10G10G13G15G18G20G21G24G27G29G32
  21833592.39849 114736323.44449      1913.41049        48.064    21833594.73446
  89404948.47246      1490.96546        41.376
  24020193.05946 126226994.55446     -3246.74646        42.743    24020193.20741
  98358708.34441     -2529.93441        30.673
  21513317.85549 113053315.78949     -2230.71549        49.565    21513317.38045
  88093531.43345     -1738.22345        41.002
  20751930.02649 109052164.10249       384.05149        48.335    20751928.86746
  84975729.86046       299.25846        42.927
  22595202.08847 118738671.61047     -2626.58647        44.153    22595202.50143
  92523657.98143     -2046.69543        35.686
  20845892.17849 109545949.61649       114.66049        47.890    20845890.81647
  85360488.62147        89.34447        44.878
  23540534.48345 123706355.20145      2456.03945        39.216    23540537.18444
  96394580.83344      1913.79344        38.389
  22586043.87747 118690484.53247      1666.30147        44.757    22586045.66245
  92486095.60245      1298.41445        39.224
  24485093.22846 128670027.53746     -3856.13346        42.715    24485094.89241
 100262371.43641     -3004.78141        30.933
  24573927.54746 129136871.59246      3706.52746        41.650    24573931.42343
 100626147.73943      2888.20343        34.864
 17  8 21  0 24  0.0000000  0 10G10G13G15G18G20G21G24G27G29G32
  21822689.60049 114679027.82449      1906.25449        47.877    21822691.89846
  89360302.54446      1485.39146        42.739
  24038751.58846 126324518.18246     -3255.12146        42.128    24038750.68641
  98434700.79241     -2536.46141        30.692
  21526094.75449 113120458.98349     -2245.58649        49.320    21526094.28245
  88145850.79345     -1749.80945        40.805
  20749757.54849 109040749.06249       377.05949        48.314    20749756.70346
  84966835.02846       293.80946        42.581
  22610206.84447 118817520.27547     -2630.02747        44.603    22610206.52844
  92585098.50344     -2049.37544        36.692
  20845270.38749 109542682.30149       103.06249        47.958    20845269.05147
  85357942.66047        80.30547        44.673
  23526538.88845 123632808.52545      2446.78945        40.039    23526542.10044
  96337271.76144      1906.58644        38.134
  22576581.54647 118640761.05447      1648.59847        45.020    22576583.82245
  92447350.05645      1284.61745        39.401
  24507106.24245 128785707.61245     -3855.99645        40.402    24507107.92341
 100352511.66541     -3004.67641        28.808
  24552777.46045 129025728.13545      3703.40645        40.678    24552781.25242
 100539542.56342      2885.77342        33.990
 17  8 21  0 24 30.0000000  0 10G10G13G15G18G20G21G24G27G29G32
  21811828.01949 114621949.70449      1898.94949        48.079    21811830.63746
  89315826.11546      1479.69946        42.627
  24057358.54246 126422297.53846     -3263.48446        41.395    24057357.41441
  98510892.48441     -2542.97741        28.861
  21538956.33349 113188047.79849     -2260.34849        49.016    21538956.12246
  88198517.39446     -1761.31246        41.361
  20747625.20249 109029544.06749       369.97349        48.386    20747624.32946
  84958103.87046       288.28946        42.864
  22625231.26847 118896473.16547     -2633.14847        44.140    22625230.38843
  92646620.21943     -2051.80943        35.720
  20844714.49449 109539760.96649        91.48449        47.842    20844713.15447
  85355666.29547        71.28547        44.707
  23512596.26346 123559536.88346      2437.74646        41.642    23512599.55144
  96280177.01744      1899.53944        38.175
  22567220.14447 118591568.48447      1630.98047        44.874    22567222.52745
  92409018.19945      1270.89145        39.562
  24529119.46646 128901389.30546     -3856.22746        41.431    24529122.14241
 100442653.13141     -3004.85541        27.282
  24531645.57145 128914680.99145      3700.02045        40.702    24531649.33241
 100453012.44841      2883.12941        31.128
 17  8 21  0 25  0.0000000  0 10G10G13G15G18G20G21G24G27G29G32
  21801007.75549 114565089.16849      1891.87949        47.928    21801010.69546
  89271519.20946      1474.18846        42.829
  24076013.43544 126520329.59344     -3271.88344        38.852    24076012.92842
  98587281.05942     -2549.52742        32.328
  21551902.27149 113256079.49149     -2275.07849        49.256    21551902.30346
  88251529.09246     -1772.83246        41.162
  20745532.93449 109018548.63749       363.06249        48.633    20745531.88246
  84949536.00446       282.90246        42.549
  22640275.35746 118975529.53546     -2637.09446        42.946    22640274.56244
  92708222.58644     -2054.88344        36.834
  20844224.58649 109537186.41849        80.03949        47.976    20844223.38047
  85353660.15147        62.36347        44.407
  23498706.47546 123486543.18946      2428.42246        41.117    23498709.38844
  96223298.83644      1892.27344        37.681
  22557960.33447 118542908.55247      1613.30147        44.536    22557962.51445
  92371101.37545      1257.11345        39.395
  24551133.25046 129017070.55146     -3856.10246        43.013    24551135.58542
 100532794.27842     -3004.76242        33.510
  24510532.46946 128803732.31446      3696.68046        41.276    24510536.58342
 100366559.07042      2880.52742        33.651
 17  8 21  0 25 30.0000000  0 11G 8G10G13G15G18G20G21G24G27G29G32
  25273579.13645 132813548.91445      3022.68445        40.155    25273582.15541
 103491097.28541      2355.33641        26.448
  21790229.03049 114508446.28049      1884.42649        47.937    21790231.88546
  89227381.90546      1468.37946        42.615
  24094715.72645 126618611.76345     -3279.92645        39.892    24094715.43641
  98663864.54841     -2555.78941        23.798
  21564932.02049 113324551.40349     -2289.74649        49.702    21564932.19545
  88304883.82645     -1784.22345        40.235
  20743480.56149 109007762.43949       356.18449        48.679    20743479.36146
  84941131.17646       277.54346        42.619
  22655338.55347 119054688.54747     -2640.45747        43.929    22655338.15644
  92769904.89544     -2057.50444        36.909
  20843801.02949 109534960.51749        68.45749        48.027    20843799.87747
  85351925.67647        53.34047        43.852
  23484869.63645 123413830.47345      2419.10245        39.684    23484872.63643
  96166639.59643      1885.01243        35.963
  22548802.53547 118494782.91947      1595.17247        45.221    22548804.42245
  92333600.89745      1242.98845        39.533
  24573146.40246 129132748.35846     -3855.94146        41.532    24573148.53141
 100622932.74541     -3004.66841        30.873
  24489438.62045 128692884.21945      3693.35245        41.034    24489442.91942
 100280184.07642      2877.93842        34.077
 17  8 21  0 26  0.0000000  0 11G 8G10G13G15G18G20G21G24G27G29G32
  25256349.41845 132723002.65045      3013.50045        40.715    25256350.80141
 103420541.73341      2348.18041        30.984
  21779491.70149 114452021.08749      1877.21549        47.848    21779494.38646
  89183414.24546      1462.76246        42.259
  24113465.05245 126717141.30745     -3288.25045        41.023    24113465.35543
  98740640.76243     -2562.27743        34.814
  21578045.13149 113393461.39949     -2304.30549        49.219    21578045.11745
  88358579.91845     -1795.56645        39.998
  20741467.90849 108997185.15949       349.14549        48.583    20741466.51746
  84932889.13646       272.05946        42.396
  22670421.58547 119133949.72447     -2643.71947        43.815    22670420.89643
  92831666.86043     -2060.04343        34.587
  20843443.91849 109533084.07049        56.57849        47.961    20843442.72047
  85350463.51547        44.08247        44.543
  23471086.36045 123341401.51745      2409.35945        40.585    23471089.68944
  96110201.50644      1877.41844        37.622
  22539746.85748 118447193.21948      1577.41448        46.048    22539748.17245
  92296518.00745      1229.15245        39.728
  24595158.47446 129248420.38346     -3855.63346        43.273    24595160.27842
 100713066.65542     -3004.41042        32.506
  24468364.53746 128582138.84146      3689.77046        41.895    24468368.78743
 100193889.07843      2875.14543        34.824
 17  8 21  0 26 30.0000000  0 11G 8G10G13G15G18G20G21G24G27G29G32
  25239171.88145 132632735.26045      3004.16445        39.866    25239174.31743
 103350203.50043      2340.90243        34.994
  21768795.73349 114395813.70549      1869.93849        47.881    21768798.46146
  89139616.30646      1457.09046        42.477
  24132261.23546 126815915.68646     -3296.59046        41.871    24132261.66143
  98817607.78343     -2568.77343        34.721
  21591241.14249 113462806.91849     -2318.73849        49.186    21591240.82445
  88412615.38545     -1806.81245        40.287
  20739494.73249 108986816.20649       342.23849        48.451    20739493.21746
  84924809.43146       266.67646        42.013
  22685523.64147 119213311.91647     -2647.18047        43.857    22685522.76243
  92893507.51643     -2062.74243        35.779
  20843153.67249 109531558.47949        44.94549        47.988    20843152.32947
  85349274.74147        35.02047        44.593
  23457358.43645 123269260.64545      2399.82445        40.905    23457361.91645
  96053987.86745      1869.98845        39.015
  22530793.31548 118400141.08748      1559.46948        45.628    22530794.74545
  92259854.01845      1215.16845        41.095
  24617168.62246 129364083.82946     -3855.28546        41.821    24617170.47041
 100803193.95941     -3004.12141        31.159
  24447310.13745 128471498.23445      3686.80145        40.667    24447314.50243
 100107675.72843      2872.83243        34.754
 17  8 21  0 27  0.0000000  0 11G 8G10G13G15G18G20G21G24G27G29G32
  25222047.67245 132542749.29645      2994.59045        39.297    25222051.21343
 103280084.66943      2333.45343        35.592
  21758141.12949 114339824.20649      1862.50449        47.889    21758143.94446
  89095988.14646      1451.32446        41.570
  24151103.45446 126914931.95946     -3304.60546        41.528    24151103.93942
  98894763.28542     -2575.02042        32.769
  21604519.43949 113532585.23149     -2333.18849        49.259    21604519.25045
  88466988.10045     -1818.07045        40.653
  20737561.01449 108976655.15249       335.30549        48.307    20737559.58746
  84916891.73646       261.27346        42.421
  22700644.78747 119292774.53747     -2650.42247        43.767    22700644.11443
  92955426.42743     -2065.26643        34.571
  20842930.19249 109530383.88949        33.25449        48.252    20842928.81147
  85348359.47547        25.91047        44.600
  23443686.20946 123197409.89746      2390.06646        41.917    23443689.63744
  95998000.28444      1862.38744        37.664
  22521942.35548 118353628.20648      1541.33248        45.571    22521943.95545
  92223610.21345      1201.03545        40.571
  24639176.60346 129479736.41846     -3855.00446        41.727    24639178.41341
 100893312.73041     -3003.90641        32.197
  24426275.86846 128360964.63046      3683.01246        41.221    24426280.20141
 100021545.76741      2869.87941        32.097
 17  8 21  0 27 30.0000000  0 11G 8G10G13G15G18G20G21G24G27G29G32
  25204978.11845 132453047.00845      2985.32445        40.390    25204981.17941
 103210186.78341      2326.22341        31.846
  21747527.99548 114284052.63948      1855.31648        47.735    21747530.61246
  89052529.79646      1445.69946        41.684
  24169991.17245 127014187.32845     -3312.56245        40.108    24169991.56841
  98972105.11941     -2581.22341        31.929
  21617879.78149 113602793.87749     -2347.57049        49.536    21617879.86845
  88521696.12145     -1829.27745        40.519
  20735666.86549 108966702.02149       328.26649        48.446    20735665.62946
  84909136.05046       255.78946        42.108
  22715785.23947 119372336.88347     -2653.74247        43.744    22715784.06144
  93017423.05244     -2067.85544        37.299
  20842773.88549 109529562.09149        21.47349        47.960    20842772.46347
  85347719.11447        16.73047        44.664
  23430069.55446 123125852.41246      2380.26246        42.915    23430073.08644
  95942241.24644      1854.74644        36.907
  22513194.30448 118307656.12148      1523.50448        45.843    22513196.08445
  92187787.82145      1187.14545        40.925
  24661182.09746 129595375.65146     -3854.44546        42.208    24661183.86542
 100983421.14342     -3003.31642        33.225
  24405262.79246 128250540.13746      3679.02346        42.042    24405266.80443
  99935500.77643      2866.77343        35.529
 17  8 21  0 28  0.0000000  0 11G 8G10G13G15G18G20G21G24G27G29G32
  25187962.86444 132363631.19444      2975.48044        37.949    25187965.69242
 103140512.15842      2318.55542        33.610
  21736956.44148 114228499.06248      1848.25448        47.685    21736958.76346
  89009241.30846      1440.19546        41.815
  24188923.56645 127113679.30145     -3320.27345        39.213    24188924.44941
  99049631.27341     -2587.23441        27.980
  21631321.55849 113673430.06849     -2361.68049        49.420    21631321.61345
  88576737.30845     -1840.27345        40.386
  20733812.34249 108956955.99349       321.44549        48.673    20733810.98546
  84901541.74446       250.47346        42.264
  22730944.39347 119451998.31247     -2657.07847        43.734    22730943.48843
  93079496.87443     -2070.45343        34.776
  20842684.96149 109529094.21749         9.67649        48.302    20842683.43547
  85347354.53447         7.53547        44.405
  23416509.08646 123054591.54546      2370.46946        41.945    23416512.64744
  95886713.35044      1847.12144        36.764
  22504549.24448 118262226.39248      1505.35248        45.649    22504551.07345
  92152388.04345      1172.99645        40.871
  24683184.48045 129710998.91345     -3853.64545        40.654    24683186.74441
 101073517.09641     -3002.84841        31.381
  24384270.89145 128140226.76045      3675.60945        40.762    24384274.88643
  99849542.41343      2864.11343        35.730
 17  8 21  0 28 30.0000000  0 11G 8G10G13G15G18G20G21G24G27G29G32
  25171002.02844 132274504.41244      2966.12544        38.581    25171005.54642
 103071062.73642      2311.26242        32.914
  21726426.64749 114173163.60249      1840.83249        48.342    21726428.58346
  88966122.78046      1434.34846        41.672
  24207900.87145 127213404.95645     -3327.92245        39.815    24207901.69941
  99127339.55941     -2593.19141        30.794
  21644844.23449 113744491.62849     -2375.80949        49.411    21644844.34545
  88632109.93945     -1851.28145        41.075
  20731997.21149 108947416.95349       314.52049        48.472    20731995.76346
  84894108.73446       245.07846        42.627
  22746122.22747 119531758.26947     -2660.28147        44.050    22746121.20443
  93141647.46343     -2072.94943        34.821
  20842663.64249 109528981.71649        -2.14549        48.062    20842662.05047
  85347266.86747        -1.67647        44.856
  23403005.07945 122983630.56545      2360.37945        40.356    23403009.08344
  95831419.13944      1839.25844        37.096
  22496007.51648 118217340.63248      1487.07048        45.599    22496009.75645
  92117412.14545      1158.75445        40.670
  24705183.22546 129826603.40146     -3853.18846        42.007    24705185.55941
 101163598.44441     -3002.48841        31.969
  24363300.64646 128030026.78546      3671.34046        41.577    24363304.79443
  99763672.39143      2860.78143        35.936
 17  8 21  0 29  0.0000000  0 11G 8G10G13G15G18G20G21G24G27G29G32
  25154097.22745 132185669.15045      2956.27345        39.763    25154100.65042
 103001840.49342      2303.58642        34.055
  21715938.29449 114118046.26149      1833.62549        48.230    21715940.03946
  88923174.21646      1428.79746        42.210
  24226922.00445 127313361.82845     -3336.02345        40.075    24226922.56341
  99205228.01241     -2599.50441        31.312
  21658447.27649 113815975.83349     -2389.73049        49.478    21658447.49745
  88687811.91145     -1862.12945        40.804
  20730221.21249 108938084.34049       307.66049        48.690    20730219.76946
  84886836.57546       239.73046        42.211
  22761318.46347 119611615.77347     -2663.56247        43.398    22761317.45643
  93203874.07443     -2075.50843        35.481
  20842709.97549 109529225.30949       -14.05549        48.068    20842708.38147
  85347456.68147       -10.95347        44.622
  23389559.02246 122912971.83046      2350.24246        42.240    23389562.73544
  95776360.41844      1831.35544        36.672
  22487569.65547 118173000.33347      1468.81247        44.920    22487572.14945
  92082861.28745      1144.52745        40.790
  24727177.75545 129942186.74745     -3852.37945        41.063    24727180.10241
 101253663.27741     -3001.85941        31.092
  24342352.37446 127919942.23146      3667.56646        41.544    24342356.75744
  99677892.30244      2857.84044        37.027
 17  8 21  0 29 30.0000000  0 11G 8G10G13G15G18G20G21G24G27G29G32
  25137248.42545 132097128.20045      2945.91445        40.020    25137251.71743
 102932847.55743      2295.51643        34.592
  21705491.39049 114063147.14949      1826.37549        48.251    21705493.13846
  88880395.69746      1423.14546        41.761
  24245986.88645 127413546.93045     -3343.42645        40.973    24245987.40841
  99283294.31141     -2605.27041        27.424
  21672130.20049 113887880.16349     -2403.78949        49.148    21672130.57645
  88743841.24745     -1873.08645        40.691
  20728484.50249 108928957.98149       300.82849        48.634    20728483.00246
  84879725.13746       234.41046        42.050
  22776533.30047 119691570.26747     -2666.55547        44.152    22776532.35343
  93266176.27443     -2077.84043        36.416
  20842824.25149 109529825.93349       -25.87549        48.097    20842822.68547
  85347924.69747       -20.16447        44.588
  23376171.74446 122842619.61946      2339.82846        43.243    23376174.53744
  95721540.53144      1823.23844        36.987
  22479235.85147 118129207.03847      1450.68847        44.910    22479238.40345
  92048736.64545      1130.40245        40.562
  24749168.09345 130057746.49545     -3851.65645        40.981    24749170.08141
 101343709.74041     -3001.29741        31.504
  24321426.27346 127809975.22246      3663.65646        41.797    24321430.78143
  99592203.82343      2854.79343        34.861
 17  8 21  0 30  0.0000000  0 11G 8G10G13G15G18G20G21G24G27G29G32
  25120456.16144 132008884.08544      2936.44144        38.328    25120459.12442
 102864085.93742      2288.13742        34.393
  21695085.91649 114008466.32249      1818.92649        48.102    21695087.80046
  88837787.27646      1417.34046        41.757
  24265094.52646 127513957.78346     -3350.74646        41.513    24265095.03241
  99361536.49841     -2610.97341        30.635
  21685892.44349 113960202.22549     -2417.63349        49.018    21685892.87445
  88800196.08845     -1883.87145        39.998
  20726786.84949 108920037.33749       293.92249        48.417    20726785.44646
  84872773.98646       229.02746        42.045
  22791766.38746 119771621.07546     -2669.96946        43.304    22791765.72743
  93328553.50943     -2080.50043        35.940
  20843006.64749 109530784.81149       -37.97749        48.018    20843005.22047
  85348671.86647       -29.59447        44.546
  23362843.17646 122772575.96546      2329.46946        42.310    23362845.32044
  95666961.06844      1815.16844        37.573
  22471006.59247 118085962.24347      1432.23847        45.352    22471008.51545
  92015039.40945      1116.02745        39.703
  24771153.24745 130173280.13745     -3850.58245        40.648    24771155.73643
 101433735.86143     -3000.37143        34.565
  24300523.25446 127700127.92346      3659.56646        42.634    24300527.57642
  99506608.59842      2851.60942        33.373
 17  8 21  0 30 30.0000000  0 11G 8G10G13G15G18G20G21G24G27G29G32
  25103720.17344 131920939.41644      2926.61344        38.388    25103724.35042
 102795557.65242      2280.47742        32.682
  21684721.93849 113954003.84849      1811.76649        48.237    21684724.00946
  88795349.00146      1411.76246        41.754
  24284244.36445 127614591.54845     -3358.11745        40.650    24284244.56142
  99439952.42942     -2616.71942        34.078
  21699733.78949 114032939.35149     -2431.64149        49.078    21699734.08345
  88856874.35945     -1894.78945        40.273
  20725128.22149 108911322.03449       287.04749        48.079    20725127.00946
  84865982.85146       223.66846        43.178
  22807017.26346 119851767.60746     -2673.22746        42.734    22807016.99944
  93391005.34044     -2083.03544        37.242
  20843257.47449 109532103.28149       -49.94949        48.007    20843256.09847
  85349699.24647       -38.92647        44.826
  23349573.06545 122702844.15345      2319.27745        40.646    23349575.83844
  95612624.62344      1807.22744        37.956
  22462882.07747 118043267.41747      1414.00847        45.381    22462883.78945
  91981770.73645      1101.82045        39.409
  24793133.27346 130288784.75446     -3849.67246        42.231    24793135.74141
 101523739.38041     -2999.74641        28.687
  24279643.47946 127590402.42646      3655.30546        42.558    24279647.30642
  99421108.26142      2848.28942        34.217
 17  8 21  0 31  0.0000000  0 11G 8G10G13G15G18G20G21G24G27G29G32
  25087042.00144 131833296.56244      2916.80544        37.863    25087046.70541
 102727264.57741      2272.83241        31.830
  21674399.59749 113899759.78249      1804.53549        48.254    21674401.84746
  88753080.90846      1406.12946        42.846
  24303435.89945 127715445.51445     -3365.62145        40.330    24303436.38641
  99518539.83541     -2622.57441        31.379
  21713653.72449 114106088.61449     -2445.24649        49.183    21713653.97445
  88913873.77445     -1905.39145        40.600
  20723508.75849 108902811.75749       280.28549        48.428    20723507.69546
  84859351.46846       218.40246        42.769
  22822286.69646 119932008.73446     -2676.26246        42.658    22822286.45043
  93453530.86843     -2085.40243        35.263
  20843576.80049 109533781.89649       -62.03149        48.075    20843575.53447
  85351007.24647       -48.34047        45.032
  23336362.93745 122633427.27745      2308.42645        40.828    23336366.43744
  95558533.62544      1798.77044        36.719
  22454862.53147 118001124.06447      1395.44547        45.064    22454864.43145
  91948931.76645      1087.35545        40.604
  24815107.17845 130404257.96945     -3848.60945        40.561    24815109.68841
 101613718.45941     -2998.99241        31.530
  24258786.84546 127480800.79946      3651.14146        41.504    24258790.57243
  99335704.43443      2845.04343        36.453
 17  8 21  0 31 30.0000000  0 11G 8G10G13G15G18G20G21G24G27G29G32
  25070422.20946 131745957.98146      2906.00446        41.117    25070426.92341
 102659208.63341      2264.41841        30.376
  21664118.76949 113845734.19849      1797.20349        47.806    21664121.09746
  88710983.06446      1400.41446        42.198
  24322669.07445 127816517.21845     -3372.53545        39.909    24322669.56941
  99597297.01241     -2627.95341        26.365
  21727651.64749 114179647.50949     -2458.76649        49.371    21727651.79445
  88971192.38245     -1915.88745        40.345
  20721928.33449 108894506.25549       273.44549        48.367    20721927.23446
  84852879.64946       213.07046        42.675
  22837573.83446 120012344.18746     -2679.18446        42.779    22837573.80844
  93516129.91944     -2087.68044        36.751
  20843964.91849 109535821.78549       -74.06249        48.034    20843963.80347
  85352596.77247       -57.71547        44.720
  23323213.96046 122564328.44946      2297.95346        42.404    23323217.31444
  95504690.41344      1790.60944        37.592
  22446948.36548 117959533.57548      1377.16848        45.878    22446950.42445
  91916523.60245      1073.11345        40.705
  24837074.62245 130519697.74245     -3847.34045        40.807    24837077.19741
 101703671.39341     -2997.93441        30.305
  24237953.71645 127371325.13745      3646.88745        41.070    24237957.76742
  99250398.82042      2841.72742        33.616
 17  8 21  0 32  0.0000000  0 11G 8G10G13G15G18G20G21G24G27G29G32
  25053861.13545 131658926.34545      2896.01245        39.430    25053865.04941
 102591391.75841      2256.62941        29.881
  21653879.37748 113791927.11648      1790.00848        47.673    21653881.71046
  88669055.49046      1394.80946        42.132
  24341943.40645 127917803.70345     -3380.13745        40.003    24341944.01942
  99676221.49942     -2633.87542        32.876
  21741727.10049 114253614.00749     -2472.34049        49.401    21741727.10645
  89028828.61445     -1926.50045        39.882
  20720386.72949 108886404.95549       266.73049        48.466    20720385.60546
  84846566.95746       207.84046        42.774
  22852878.92446 120092773.14846     -2682.67246        42.652    22852878.90243
  93578801.79643     -2090.39843        36.206
  20844422.08449 109538224.14049       -86.15249        48.008    20844421.22747
  85354468.73047       -67.13747        45.279
  23310126.26246 122495550.62846      2287.24646        43.073    23310129.14444
  95451097.32544      1782.26644        37.071
  22439139.73448 117918497.37848      1358.70748        46.066    22439141.29445
  91884547.35845      1058.73045        39.779
  24859035.38346 130635101.02946     -3846.22346        42.318    24859037.22241
 101793595.98341     -2997.05941        28.931
  24217145.52746 127261977.62846      3642.66046        42.904    24217149.83844
  99165193.05144      2838.43444        37.944
 17  8 21  0 32 30.0000000  0 11G 8G10G13G15G18G20G21G24G27G29G32
  25037357.95944 131572204.29244      2885.65244        38.066    25037362.33343
 102523816.19343      2248.56243        34.857
  21643681.70248 113738338.65248      1782.73048        47.658    21643684.22246
  88627298.26946      1389.13746        43.250
  24361258.27745 128019302.52945     -3386.95745        40.694    24361258.59341
  99755311.48341     -2639.19141        31.964
  21755879.63249 114327985.24849     -2485.76249        49.240    21755879.43745
  89086780.23045     -1936.96145        40.952
  20718883.91149 108878507.42249       259.96949        48.378    20718882.79246
  84840413.03846       202.57046        42.429
  22868201.80346 120173295.12546     -2685.60546        42.621    22868201.68843
  93641546.18443     -2092.68443        35.539
  20844948.42149 109540990.10449       -98.20749        48.040    20844947.67647
  85356624.02647       -76.52747        44.851
  23297100.18646 122427096.77146      2276.29346        42.457    23297102.80743
  95397756.68443      1773.73043        35.552
  22431436.50448 117878016.90048      1339.99248        46.060    22431437.98144
  91853004.13444      1044.14844        38.756
  24880988.87246 130750465.57746     -3844.89846        41.126    24880990.40343
 101883490.35943     -2996.02743        34.762
  24196362.20746 127152760.34046      3638.25046        42.572    24196366.59444
  99080088.76144      2834.99644        38.616
 17  8 21  0 33  0.0000000  0 11G 8G10G13G15G18G20G21G24G27G29G32
  25020914.74645 131485794.03845      2875.39545        40.352    25020919.63943
 102456483.60143      2240.56243        35.485
  21633525.65549 113684968.85149      1775.43049        48.128    21633528.56846
  88585711.43946      1383.38746        42.582
  24380612.94345 128121010.76545     -3393.58645        40.828    24380612.89341
  99834564.62941     -2644.35541        31.504
  21770108.50749 114402758.67149     -2499.10249        49.111    21770108.61445
  89145045.21145     -1947.35545        40.336
  20717419.87149 108870813.45749       253.06249        48.434    20717418.68546
  84834417.73746       197.18846        42.605
  22883542.21246 120253909.05546     -2688.75046        42.842    22883542.09743
  93704362.19643     -2095.13343        35.269
  20845544.16049 109544120.69749      -110.47349        47.967    20845543.35447
  85359063.44947       -86.08647        44.941
  23284136.11946 122358969.94146      2265.32446        41.978    23284138.20443
  95344670.84343      1765.18443        36.312
  22423839.25548 117838093.45748      1321.40648        45.893    22423840.69945
  91821894.97245      1029.66445        40.042
  24902934.35246 130865788.55846     -3843.21146        42.019    24902935.63341
 101973352.31541     -2994.71941        30.908
  24175603.95646 127043675.35646      3634.07846        41.377    24175608.20143
  98995087.56543      2831.74643        34.662
 17  8 21  0 33 30.0000000  0 11G 8G10G13G15G18G20G21G24G27G29G32
  25004531.89045 131399698.62545      2864.49245        40.797    25004535.98643
 102389396.28443      2232.07043        35.670
  21623411.56849 113631817.78349      1768.16449        48.441    21623414.40946
  88544295.04146      1377.78546        42.702
  24400006.90445 128222925.86745     -3400.62545        40.141    24400006.63241
  99913978.95241     -2649.84041        31.235
  21784413.24849 114477931.61149     -2512.44949        48.801    21784413.76645
  89203621.50745     -1957.75445        40.545
  20715994.65249 108863323.03949       246.42249        48.628    20715993.42547
  84828581.04847       192.01647        43.595
  22898900.43547 120334614.45247     -2691.68847        43.586    22898900.00443
  93767249.50843     -2097.42243        35.357
  20846209.43349 109547616.70549      -122.53549        48.153    20846208.62047
  85361787.61547       -95.48447        44.798
  23271234.54945 122291173.17945      2254.49645        40.988    23271236.94944
  95291842.24444      1756.75044        37.736
  22416348.32548 117798728.44848      1302.91848        45.711    22416349.53845
  91791220.94345      1015.25845        39.263
  24924871.41445 130981067.42545     -3842.05145        40.580    24924872.74541
 102063179.95441     -2993.80941        28.742
  24154871.05446 126934724.79346      3629.53146        41.869    24154874.87043
  98910191.05743      2828.20343        34.737
 17  8 21  0 34  0.0000000  0 11G 8G10G13G15G18G20G21G24G27G29G32
  24988208.82445 131313920.02945      2853.62145        38.901    24988212.57241
 102322555.80441      2223.59441        31.529
  21613339.21849 113578885.51249      1760.76649        48.739    21613341.68846
  88503049.12446      1372.02346        41.752
  24419439.55945 128325045.10345     -3407.35245        39.854    24419439.63441
  99993552.36941     -2655.08241        31.256
  21798793.56049 114553501.19949     -2525.55949        49.018    21798794.19845
  89262506.88345     -1967.97345        40.709
  20714607.92649 108856035.31149       239.53949        48.621    20714606.75846
  84822902.29846       186.65246        42.859
  22914275.62646 120415410.69646     -2694.68046        42.135    22914275.00444
  93830207.58944     -2099.75444        37.674
  20846944.50349 109551479.29649      -134.87549        48.143    20846943.69647
  85364797.42547      -105.10247        44.725
  23258395.83745 122223709.63545      2243.16445        40.705    23258399.14643
  95239273.28743      1747.91843        35.756
  22408963.66747 117759923.22447      1284.19147        45.366    22408965.16145
  91760983.12545      1000.66445        40.288
  24946799.59746 131096300.25146     -3840.39546        41.277    24946800.92141
 102152971.62841     -2992.52341        29.955
  24134164.36346 126825910.72546      3624.86346        41.607    24134168.23243
  98825400.95943      2824.56643        34.907
 17  8 21  0 34 30.0000000  0 11G 8G10G13G15G18G20G21G24G27G29G32
  24971946.46945 131228460.96345      2843.78545        39.327    24971949.85143
 102255964.35943      2215.93443        35.591
  21603308.32049 113526172.06449      1753.50849        48.663    21603310.70146
  88461973.72646      1366.40646        42.824
  24438910.57545 128427365.87045     -3414.38745        39.435    24438910.74541
 100073282.79441     -2660.56241        31.732
  21813249.01149 114629464.91449     -2538.68849        49.123    21813249.52845
  89321699.37645     -1978.20345        40.172
  20713259.63849 108848950.21649       232.71949        48.354    20713258.56347
  84817381.44747       181.33647        43.453
  22929667.83146 120496297.27646     -2697.71946        42.820    22929667.41243
  93893236.07543     -2102.12143        35.128
  20847749.47149 109555709.46849      -147.04349        48.061    20847748.75647
  85368093.65747      -114.58247        45.105
  23245621.99946 122156582.26246      2231.89546        41.511    23245625.79544
  95186966.28644      1739.13744        38.517
  22401685.85248 117721679.04948      1265.50848        45.769    22401687.46545
  91731182.49145       986.10545        39.855
  24968718.63146 131211484.12446     -3838.83246        41.628    24968719.84741
 102242725.23641     -2991.30141        31.061
  24113484.27146 126717235.28146      3620.35246        42.419    24113488.03742
  98740718.87942      2821.05142        34.294
 17  8 21  0 35  0.0000000  0 11G 8G10G13G15G18G20G21G24G27G29G32
  24955745.63546 131143324.43646      2832.48046        41.669    24955749.31744
 102189624.27844      2207.12544        37.810
  21593319.00449 113473677.53749      1746.07049        48.823    21593320.94546
  88421068.90046      1360.57046        41.982
  24458419.42445 128529885.54745     -3420.78145        39.749    24458419.62541
 100153168.22941     -2665.54741        31.481
  21827779.05149 114705820.31149     -2551.62149        49.220    21827779.23545
  89381197.08645     -1988.28145        39.925
  20711949.74449 108842067.20949       226.14149        48.633    20711948.82046
  84812018.06646       176.21146        43.047
  22945077.20846 120577273.76646     -2700.62146        43.199    22945076.67643
  93956334.63143     -2104.38343        35.076
  20848624.61949 109560308.12549      -159.35249        48.125    20848623.78847
  85371677.02447      -124.17247        44.414
  23232913.19146 122089794.05646      2220.69946        42.680    23232916.46944
  95134923.55844      1730.41044        37.278
  22394515.16447 117683997.26047      1246.65247        45.332    22394516.98445
  91701820.06445       971.41445        40.599
  24990627.78546 131326616.89346     -3837.10246        41.648    24990629.01241
 102332439.01141     -2989.94941        29.040
  24092830.76546 126608700.45446      3615.28946        41.146    24092834.36643
  98656146.32843      2817.10543        35.319
 17  8 21  0 35 30.0000000  0 11G 8G10G13G15G18G20G21G24G27G29G32
  24939606.67546 131058512.24446      2821.43046        41.751    24939609.88841
 102123536.86441      2198.51241        31.597
  21583371.27049 113421401.96049      1738.79349        48.359    21583372.83646
  88380334.69346      1354.90246        41.762
  24477965.72745 128632601.55045     -3427.23045        40.697    24477965.96142
 100233206.65042     -2670.57442        34.286
  21842383.24449 114782564.87449     -2564.62949        49.308    21842383.26045
  89440998.03845     -1998.41445        40.274
  20710678.38649 108835386.30249       219.35949        48.601    20710677.53047
  84806812.17047       170.92647        43.341
  22960503.66946 120658338.73946     -2703.73046        43.227    22960502.95143
  94019502.11343     -2106.80543        35.271
  20849570.12849 109565276.50349      -171.71149        48.381    20849569.12647
  85375548.48047      -133.80547        44.276
  23220269.27946 122023347.75746      2208.77346        42.228    23220271.92744
  95083147.23144      1721.11744        38.370
  22387451.69548 117646879.10448      1227.73848        45.600    22387453.62445
  91672896.84045       956.67645        40.089
  25012526.58245 131441695.83645     -3835.01645        40.441    25012528.31341
 102422110.78341     -2988.33241        30.761
  24072203.98846 126500308.45346      3610.84846        41.768    24072208.01342
  98571685.14442      2813.64842        32.310
 17  8 21  0 36  0.0000000  0 11G 8G10G13G15G18G20G21G24G27G29G32
  24923529.27644 130974027.25744      2810.73044        37.129    24923531.97242
 102057704.42142      2190.17642        34.240
  21573464.87449 113369345.36949      1731.55549        47.878    21573466.81446
  88339771.14746      1349.26246        42.737
  24497548.60745 128735510.88745     -3433.48045        40.917    24497548.70241
 100313395.74441     -2675.43841        28.864
  21857060.86949 114859695.75349     -2577.38749        49.065    21857060.43945
  89501100.02545     -2008.35545        39.418
  20709445.34849 108828907.01449       212.71549        48.408    20709444.66146
  84801763.37746       165.75046        42.878
  22975946.29146 120739491.99346     -2706.32046        42.417    22975946.21944
  94082738.38444     -2108.82444        37.681
  20850586.14049 109570615.54449      -184.28549        48.253    20850584.96847
  85379708.77147      -143.60247        44.674
  23207690.06445 121957246.29745      2197.64845        39.679    23207693.06545
  95031639.63645      1712.44945        39.454
  22380495.71847 117610325.82347      1208.65647        45.456    22380497.92545
  91644413.77445       941.80945        40.694
  25034414.59545 131556718.30945     -3833.12945        40.978    25034416.41441
 102511738.58241     -2986.85941        31.666
  24051605.19946 126392061.35446      3605.85246        42.078    24051609.04944
  98487336.83444      2809.75044        36.691
 17  8 21  0 36 30.0000000  0 11G 8G10G13G15G18G20G21G24G27G29G32
  24907514.63346 130889871.65746      2799.58246        41.379    24907518.13642
 101992128.65842      2181.48842        32.996
  21563600.39849 113317507.87749      1724.22749        48.390    21563602.62646
  88299378.32346      1343.55146        42.379
  24517167.87246 128838611.02846     -3439.79346        41.160    24517168.14041
 100393733.52341     -2680.35941        31.009
  21871811.13049 114937210.38549     -2590.22349        48.638    21871810.63645
  89561501.02645     -2018.35945        39.228
  20708250.54449 108822628.46749       205.97749        48.356    20708249.88146
  84796871.01246       160.49646        43.135
  22991406.24747 120820733.14647     -2709.36347        43.676    22991405.93344
  94146043.20144     -2111.19544        36.792
  20851672.77549 109576325.95449      -196.62949        48.242    20851671.54047
  85384158.43947      -153.21947        44.348
  23195176.98045 121891493.28445      2186.03545        40.957    23195180.45944
  94980403.55244      1703.40244        37.424
  22373647.63147 117574338.62747      1190.11347        45.486    22373650.05245
  91616371.80345       927.35945        40.788
  25056291.19644 131671681.99644     -3831.32444        37.296    25056293.66341
 102601320.53941     -2985.46141        30.493
  24031034.35046 126283961.21546      3601.03546        41.995    24031038.29444
  98403103.02944      2806.00044        36.933
 17  8 21  0 37  0.0000000  0 11G 8G10G13G15G18G20G21G24G27G29G32
  24891564.31946 130806048.41146      2788.37546        41.998    24891567.92743
 101926811.88143      2172.75843        36.572
  21553777.77249 113265889.54649      1716.89849        48.616    21553779.99846
  88259156.25946      1337.84046        42.287
  24536822.92345 128941899.52545     -3446.05145        39.589    24536823.37341
 100474218.02541     -2685.23841        31.774
  21886633.89449 115015106.27449     -2602.84449        48.678    21886633.53645
  89622199.11745     -2028.19145        39.304
  20707094.06749 108816550.94949       199.15649        48.617    20707093.27046
  84792135.27946       155.18446        42.544
  23006882.27846 120902061.26646     -2712.39546        42.625    23006882.30143
  94209415.72543     -2113.55943        36.068
  20852830.30749 109582408.79749      -208.96149        48.329    20852829.04647
  85388898.31847      -162.82847        44.149
  23182731.67646 121826091.48446      2173.95346        41.372    23182734.79244
  94929441.12044      1693.98444        37.580
  22366907.40547 117538918.74347      1171.44947        44.993    22366909.80445
  91588771.90245       912.67645        40.703
  25078156.22945 131786584.46645     -3828.98045        40.144    25078159.21043
 102690854.80743     -2983.62943        34.548
  24010491.92746 126176010.08146      3595.87146        42.433    24010495.79642
  98318985.35442      2801.97342        33.877
 17  8 21  0 37 30.0000000  0 10G 8G10G13G15G18G20G21G24G27G32
  24875676.50745 130722559.71245      2777.38345        39.365    24875680.61842
 101861755.80242      2164.19142        32.710
  21543997.02949 113214490.40249      1709.68449        48.945    21543998.87046
  88219104.98546      1332.21946        41.908
  24556512.80344 129045373.56044     -3452.00444        37.871    24556513.49941
 100554847.07341     -2689.87941        28.555
  21901528.89749 115093380.63949     -2615.35949        48.715    21901528.86845
  89683192.11045     -2037.94545        39.682
  20705975.77149 108810674.01049       192.57049        48.557    20705974.85946
  84787555.84946       150.05146        43.017
  23022374.93347 120983475.86847     -2715.28547        43.568    23022374.85743
  94272855.64543     -2115.80943        35.491
  20854058.96049 109588865.22349      -221.34049        48.312    20854057.58847
  85393929.29347      -172.47747        44.576
  23170353.55746 121761043.23446      2162.33246        41.344    23170356.23044
  94878754.18644      1684.93044        38.022
  22360275.43047 117504067.37947      1152.13347        45.386    22360277.68245
  91561614.99745       897.86345        39.548
  23989978.44847 126068210.11347      3590.65647        43.344    23989981.87243
  98234985.43243      2797.91043        36.561
 17  8 21  0 38  0.0000000  0 10G 8G10G13G15G18G20G21G24G27G32
  24859852.89145 130639407.97345      2765.84445        41.107    24859857.36442
 101796962.29542      2155.19942        34.323
  21534257.95049 113163310.50349      1702.32049        48.915    21534259.58746
  88179224.55246      1326.48046        42.329
  24576237.65944 129149030.49944     -3458.29744        36.966    24576239.02642
 100635618.70842     -2694.78142        33.048
  21916495.54749 115172030.82349     -2627.85249        48.956    21916495.59945
  89744477.96145     -2047.67645        39.872
  20704895.54249 108804997.37349       185.89549        48.296    20704894.48846
  84783132.49146       144.85246        42.907
  23037884.33846 121064976.26646     -2718.20746        42.843    23037883.37143
  94336362.45343     -2118.08643        36.524
  20855358.77149 109595695.99749      -233.93849        48.032    20855357.46147
  85399251.96847      -182.29347        44.728
  23158043.45546 121696351.66046      2150.40646        41.925    23158046.12144
  94828345.18244      1675.63744        38.285
  22353751.96348 117469785.64648      1133.23048        45.564    22353754.14845
  91534901.97845       883.03545        39.581
  23969493.93246 125960563.24846      3585.59846        42.209    23969497.03343
  98151104.82143      2793.96943        35.597
 17  8 21  0 38 30.0000000  0 10G 8G10G13G15G18G20G21G24G27G32
  24844094.62145 130556595.83245      2754.69945        40.064    24844098.53244
 101732433.32344      2146.51644        36.709
  21524560.59349 113112349.89049      1695.00049        48.865    21524562.09246
  88139514.99346      1320.77746        41.899
  24595997.00844 129252867.68544     -3463.78544        37.694    24595998.47841
 100716530.73841     -2699.05541        28.682
  21931533.60249 115251054.37449     -2640.32849        49.002    21931533.42745
  89806054.74645     -2057.40245        40.276
  20703853.41449 108799520.58649       179.21549        48.578    20703852.28646
  84778864.87246       139.64546        42.698
  23053409.16246 121146561.80546     -2720.85946        41.693    23053408.80544
  94399935.57144     -2120.15244        36.871
  20856730.03849 109602902.16649      -246.45349        48.273    20856728.68847
  85404867.16547      -192.04347        44.262
  23145801.63846 121632020.30346      2138.35546        41.980    23145804.26344
  94778216.88744      1666.24644        37.936
  22347337.06148 117436074.68748      1114.17648        45.758    22347339.08945
  91508633.69745       868.18845        40.521
  23949038.84046 125853071.69446      3580.38346        41.510    23949042.32943
  98067345.23543      2789.90643        34.989
 17  8 21  0 39  0.0000000  0 10G 8G10G13G15G18G20G21G24G27G32
  24828400.93145 130474125.77345      2743.62545        39.924    24828405.51643
 101668171.02043      2137.89143        35.378
  21514904.74349 113061608.64149      1687.64149        48.639    21514906.45146
  88099976.36546      1315.04346        42.653
  24615790.75245 129356882.43245     -3470.03945        40.525    24615792.01442
 100797581.13342     -2703.93042        32.900
  21946642.03649 115330448.55649     -2652.61749        48.751    21946641.81545
  89867920.33145     -2066.97745        40.074
  20702849.13449 108794243.26349       172.53149        48.457    20702847.97446
  84774752.68146       134.43846        43.052
  23068950.49547 121228232.08547     -2723.78147        43.640    23068950.43042
  94463574.73842     -2122.43042        33.387
  20858172.92949 109610484.54849      -259.08649        48.228    20858171.59947
  85410775.51147      -201.88747        44.536
  23133628.64945 121568051.87745      2125.89145        40.538    23133630.96944
  94728371.38644      1656.53544        38.595
  22341030.96247 117402935.63547      1095.16047        45.346    22341032.88745
  91482811.07345       853.36745        40.896
  23928613.50145 125745737.39545      3575.13345        40.949    23928617.60544
  97983708.21744      2785.81644        36.713
 17  8 21  0 39 30.0000000  0 10G 8G10G13G15G18G20G21G24G27G32
  24812772.67145 130392000.10345      2731.84045        39.209    24812777.30842
 101604177.00942      2128.70342        34.031
  21505290.77149 113011086.80149      1680.42249        48.820    21505292.51946
  88060608.71246      1309.41846        43.115
  24635617.89545 129461072.41545     -3475.91845        39.453    24635618.54042
 100878768.11942     -2708.51242        32.225
  21961820.18049 115410210.55449     -2664.86749        48.615    21961819.93645
  89930072.51945     -2076.52345        39.282
  20701882.71149 108789165.11649       165.89849        48.409    20701881.48846
  84770795.67846       129.27046        42.828
  23084507.67746 121309986.60646     -2726.55146        41.863    23084507.91543
  94527279.50143     -2124.59443        36.183
  20859687.51249 109618444.06749      -271.66449        48.104    20859686.34347
  85416977.73147      -211.69147        44.572
  23121525.42246 121504449.06646      2113.93046        41.585    23121527.64344
  94678810.76544      1647.21544        37.081
  22334833.85248 117370369.55748      1076.16048        45.557    22334835.89346
  91457434.92446       838.56246        41.143
  23908218.77746 125638562.48546      3569.75046        42.096    23908222.73444
  97900195.39544      2781.62144        36.782
 17  8 21  0 40  0.0000000  0 10G 8G10G13G15G18G20G21G24G27G32
  24797210.48545 130310221.40645      2720.67245        40.317    24797214.79344
 101540453.38944      2120.00044        36.717
  21495718.51949 112960784.43949      1673.21149        48.808    21495720.39746
  88021412.07746      1303.79746        42.969
  24655477.86145 129565434.85745     -3481.85245        40.195    24655478.55941
 100960089.47241     -2713.13741        30.961
  21977067.82249 115490338.09349     -2676.98849        48.723    21977067.53245
  89992509.54645     -2085.95745        39.653
  20700954.26449 108784286.02149       159.31249        48.612    20700952.99746
  84766993.79646       124.13746        42.924
  23100081.07646 121391824.69346     -2729.18446        42.753    23100080.75443
  94591049.46343     -2126.64143        36.313
  20861273.98649 109626781.55449      -284.24649        48.080    20861272.90647
  85423474.46847      -221.49247        44.593
  23109492.48646 121441214.71946      2101.44546        42.093    23109494.56144
  94629537.27144      1637.48844        37.725
  22328746.08748 117338377.58548      1056.93448        45.639    22328747.79645
  91432506.11145       823.58245        40.386
  23887854.80646 125531548.99346      3564.15246        42.804    23887858.62043
  97816808.33643      2777.25843        35.684
 17  8 21  0 40 30.0000000  0 10G 8G10G13G15G18G20G21G24G27G32
  24781715.34045 130228792.26145      2708.48445        40.799    24781719.40744
 101477002.11544      2110.50444        36.877
  21486187.80749 112910701.60949      1665.81249        48.698    21486190.01046
  87982386.51946      1298.03146        42.693
  24675369.62944 129669967.16044     -3487.61744        38.053    24675370.76141
 101041543.22241     -2717.62941        31.020
  21992384.42249 115570828.19749     -2689.01649        48.271    21992384.10345
  90055229.08945     -2095.34045        39.664
  20700063.64449 108779605.53549       152.67249        48.390    20700062.44346
  84763346.66646       118.96146        42.968
  23115669.92646 121473745.05546     -2731.79746        42.249    23115670.14143
  94654883.48143     -2128.67643        35.119
  20862932.62449 109635498.10949      -296.77749        48.232    20862931.52147
  85430266.58747      -231.25847        44.590
  23097530.32946 121378352.18046      2089.19146        42.003    23097532.44444
  94580553.46644      1627.93844        37.759
  22322767.67248 117306960.68748      1037.71548        45.647    22322769.35545
  91408025.41945       808.60545        39.895
  23867522.15347 125424699.03547      3558.88747        43.705    23867525.83344
  97733548.68444      2773.15644        37.852
 17  8 21  0 41  0.0000000  0 10G 8G10G13G15G18G20G21G24G27G32
  24766285.88544 130147714.94944      2696.76244        38.041    24766290.39543
 101413825.03143      2101.37543        35.700
  21476699.08349 112860838.38049      1658.42249        48.942    21476701.20646
  87943532.06846      1292.27346        42.823
  24695293.07344 129774666.50544     -3492.81244        38.873    24695293.28841
 101123127.08941     -2721.67641        23.892
  22007769.79449 115651678.46549     -2700.94549        48.376    22007769.41045
  90118229.28345     -2104.63745        39.719
  20699210.70549 108775123.19149       146.05949        48.588    20699209.72246
  84759853.93446       113.80946        42.941
  23131274.54946 121555747.78246     -2734.71946        42.574    23131274.94243
  94718781.65343     -2130.95343        35.680
  20864663.57049 109644594.73849      -309.56649        47.986    20864662.37647
  85437354.86947      -241.22347        44.386
  23085639.02346 121315863.89946      2076.66846        42.377    23085641.90644
  94531861.35244      1618.18044        37.201
  22316898.88948 117276119.92048      1018.46148        45.729    22316900.65645
  91383993.65645       793.60245        40.217
  23847220.57846 125318014.57546      3553.35546        43.230    23847224.34743
  97650418.01943      2768.84443        34.939
 17  8 21  0 41 30.0000000  0 10G 8G10G13G15G18G20G21G24G27G32
  24750924.83146 130066991.83546      2684.75046        41.929    24750929.55244
 101350923.94244      2092.01244        37.114
  21467252.22449 112811194.78549      1651.10249        48.395    21467254.31147
  87904848.75647      1286.57047        43.454
  24715248.32445 129879530.31145     -3498.52345        40.015    24715248.58741
 101204839.14341     -2726.12941        29.586
  22023223.25349 115732886.01449     -2712.90649        49.050    22023222.66045
  90181507.88745     -2113.98445        39.039
  20698395.43849 108770838.96449       139.46549        48.500    20698394.52847
  84756515.57347       108.67247        43.552
  23146894.69446 121637831.94246     -2737.54346        41.890    23146894.84843
  94782743.33943     -2133.15243        35.993
  20866466.99749 109654071.99549      -322.36349        48.006    20866465.83547
  85444739.74147      -251.19547        44.368
  23073819.67146 121253752.67246      2064.15246        42.215    23073822.59745
  94483463.01545      1608.42645        39.941
  22311139.71047 117245856.26647       998.93447        45.432    22311141.50945
  91360411.59245       778.38745        40.518
  23826951.06046 125211497.73746      3547.75846        43.279    23826954.76143
  97567417.96743      2764.48443        36.367
 17  8 21  0 42  0.0000000  0 10G 8G10G13G15G18G20G21G24G27G32
  24735632.52446 129986625.54646      2672.48446        41.541    24735636.99042
 101288300.87042      2082.45342        33.794
  21457847.12749 112761770.86849      1643.72349        48.905    21457849.45546
  87866336.63346      1280.82046        42.757
  24735234.04545 129984556.26545     -3503.61745        39.440    24735234.48341
 101286677.59441     -2730.09441        28.475
  22038744.05449 115814448.18949     -2724.56649        48.404    22038743.30245
  90245062.81545     -2122.95745        39.097
  20697617.85749 108766752.52849       132.94149        48.641    20697616.89547
  84753331.33847       103.58647        43.457
  23162530.48846 121719997.29346     -2740.25446        43.089    23162530.01743
  94846768.26443     -2135.26643        35.874
  20868343.09449 109663930.81949      -334.93449        48.312    20868341.84147
  85452421.94347      -260.99247        44.223
  23062072.81946 121192021.86246      2050.95746        42.579    23062075.10144
  94435361.08444      1598.14544        38.542
  22305490.52647 117216170.70947       979.74647        45.546    22305492.35545
  91337280.01045       763.43445        39.202
  23806713.85346 125105150.53646      3542.02346        42.551    23806717.49743
  97484550.07543      2760.01643        36.174
 17  8 21  0 42 30.0000000  0 10G 8G10G13G15G18G20G21G24G27G32
  24720407.94146 129906618.53946      2660.61746        41.348    24720411.29542
 101225957.78442      2073.20342        32.228
  21448483.97749 112712566.71049      1636.47349        48.607    21448486.34247
  87827995.74447      1275.17247        43.516
  24755250.19045 130089741.60045     -3508.95745        39.950    24755250.67441
 101368640.19541     -2734.25041        25.860
  22054331.73149 115896362.61449     -2736.25049        48.590    22054331.18845
  90308892.23145     -2132.14545        39.122
  20696877.86249 108762863.68549       126.34449        48.469    20696876.93646
  84750301.06846        98.44546        43.293
  23178181.27446 121802242.98546     -2743.77346        41.233    23178181.14043
  94910855.77543     -2138.00843        36.514
  20870292.00949 109674172.14349      -347.74249        48.318    20870290.60447
  85460402.18647      -270.97347        44.086
  23050398.51846 121130673.66846      2038.62946        41.820    23050400.87144
  94387557.31544      1588.53944        38.661
  22299951.72947 117187064.21047       960.53947        45.371    22299953.64945
  91314599.62345       748.46945        39.637
  23786509.16446 124998975.04846      3536.36346        42.612    23786512.62843
  97401816.00643      2755.60543        36.566
 17  8 21  0 43  0.0000000  0 10G 8G10G13G15G18G20G21G24G27G32
  24705252.13846 129826973.11346      2648.77346        41.922    24705254.89143
 101163896.40543      2063.97743        35.203
  21439162.53649 112663582.36549      1629.19549        48.610    21439164.96746
  87789826.13246      1269.50046        43.286
  24775296.16445 130195083.56445     -3514.06245        39.617    24775296.86241
 101450724.82841     -2738.23441        27.979
  22069986.06049 115978626.43049     -2747.89549        48.437    22069985.51445
  90372993.90245     -2141.21945        39.759
  20696175.25049 108759171.76049       119.78949        48.563    20696174.36546
  84747424.23646        93.34046        43.051
  23193847.00346 121884568.67446     -2746.01646        41.708    23193847.40543
  94975005.62743     -2139.75443        34.620
  20872313.88949 109684796.63049      -360.46149        48.254    20872312.44447
  85468681.00747      -280.88347        44.336
  23038797.70246 121069711.44646      2025.52346        41.654    23038800.23944
  94340054.32744      1578.32844        37.735
  22294523.21247 117158537.68247       941.34447        45.462    22294525.17145
  91292371.17645       733.51245        39.062
  23766337.47846 124892973.24846      3530.60946        42.878    23766340.94543
  97319217.26843      2751.12143        35.611
 17  8 21  0 43 30.0000000  0 10G 8G10G13G15G18G20G21G24G27G32
  24690165.82946 129747691.95146      2636.37546        42.684    24690168.89244
 101102118.94544      2054.31644        37.624
  21429882.83149 112614817.87049      1621.84049        48.458    21429885.65646
  87751827.84346      1263.77046        43.169
  24795371.16744 130300579.85844     -3518.90644        38.627    24795371.86542
 101532929.67042     -2742.01242        32.312
  22085706.46149 116061237.01749     -2759.52349        48.761    22085706.06345
  90437365.76345     -2150.28145        39.369
  20695510.04549 108755676.65449       113.26249        48.233    20695509.12546
  84744700.77746        88.25446        43.134
  23209528.34346 121966973.60746     -2747.91046        42.672    23209528.01143
  95039217.26543     -2141.23043        36.440
  20874408.90649 109695805.50349      -373.23049        48.306    20874407.43947
  85477259.34247      -290.83247        44.193
  23027271.09746 121009137.87046      2012.60546        43.216    23027273.24844
  94292854.15844      1568.26244        37.993
  22289205.31047 117130592.04747       921.81647        45.258    22289207.06945
  91270595.36545       718.29745        39.386
  23746199.56847 124787147.25447      3524.41847        43.801    23746202.66443
  97236755.51443      2746.29743        34.751
 17  8 21  0 44  0.0000000  0 10G 8G10G13G15G18G20G21G24G27G32
  24675148.82646 129668776.87346      2623.99246        42.543    24675151.89343
 101040626.73343      2044.66843        36.343
  21420645.03849 112566273.28249      1614.52349        48.563    21420648.07846
  87714000.90746      1258.06646        43.258
  24815475.15544 130406227.78644     -3524.18444        37.790    24815475.73942
 101615252.75542     -2746.12142        32.398
  22101492.26049 116144191.64149     -2770.77349        48.596    22101491.70445
  90502005.71245     -2159.04745        39.536
  20694882.28049 108752378.07049       106.68049        48.346    20694881.38846
  84742130.45546        83.12546        43.065
  23225224.50046 122049457.76846     -2750.74246        41.149    23225224.22443
  95103490.62143     -2143.43843        34.932
  20876577.20849 109707199.43249      -386.19549        48.155    20876575.63347
  85486137.72947      -300.93447        44.254
  23015819.01646 120948955.61246      1999.52046        42.133    23015820.80144
  94245958.90544      1558.06244        38.013
  22283998.21148 117103228.15848       902.49248        45.882    22283999.67545
  91249272.84745       703.28145        39.243
  23726095.59946 124681499.05746      3518.55146        43.260    23726098.01443
  97154432.28743      2741.72743        34.839
 17  8 21  0 44 30.0000000  0 10G 8G10G13G15G18G20G21G24G27G32
  24660201.85945 129590230.67645      2611.77345        40.618    24660204.51842
 100979421.89942      2035.14542        32.565
  21411449.27949 112517948.68349      1607.27349        49.035    21411451.93446
  87676345.38546      1252.41846        42.963
  24835607.68044 130512024.91644     -3529.24644        38.354    24835608.42441
 101697692.04741     -2750.06641        24.950
  22117343.08849 116227488.05749     -2782.22749        48.629    22117342.63845
  90566911.99345     -2167.94545        39.688
  20694291.94549 108749275.78149       100.05549        48.359    20694291.04546
  84739713.08646        77.96146        43.245
  23240935.46946 122132019.74246     -2753.64146        41.771    23240935.43642
  95167824.58842     -2145.69542        33.565
  20878818.85449 109718979.17549      -399.17649        48.391    20878817.28547
  85495316.74447      -311.05147        44.179
  23004441.51446 120889167.64446      1986.47746        42.451    23004443.48944
  94199370.92044      1547.90244        37.579
  22278902.02148 117076446.91248       883.04748        45.789    22278903.39245
  91228404.34445       688.08645        40.799
  23706025.28446 124576030.61646      3512.73446        42.772    23706028.12543
  97072249.19243      2737.19543        34.679
 17  8 21  0 45  0.0000000  0 10G 8G10G13G15G18G20G21G24G27G32
  24645325.03446 129512055.68446      2599.68846        41.251    24645327.85142
 100918506.33642      2025.72742        32.878
  21402295.49849 112469844.12149      1599.86349        49.328    21402297.70646
  87638861.31646      1246.64546        42.877
  24855768.25544 130617968.47944     -3533.80544        37.075    24855768.90541
 101780245.47341     -2753.61741        24.152
  22133258.49149 116311122.92849     -2793.43049        48.837    22133257.77745
  90632082.01745     -2176.70345        39.438
  20693738.92249 108746369.61049        93.63349        48.392    20693737.95546
  84737448.53546        72.95746        42.954
  23256661.38246 122214659.37046     -2755.93046        41.788    23256660.90342
  95232219.09142     -2147.48042        32.743
  20881134.08249 109731145.41949      -412.04349        48.581    20881132.52247
  85504796.93347      -321.07447        44.288
  22993139.56746 120829776.92946      1973.37546        43.076    22993141.99044
  94153092.44644      1537.69144        38.511
  22273916.77548 117050249.08848       863.60948        45.763    22273918.30545
  91207990.47245       672.93845        39.560
  23685989.86246 124470744.08146      3506.66846        43.290    23685992.78243
  96990207.77143      2732.46543        34.530
 17  8 21  0 45 30.0000000  0 10G 8G10G13G15G18G20G21G24G27G32
  24630519.50245 129434254.42145      2587.01245        40.901    24630522.79443
 100857882.02343      2015.85243        35.995
  21393183.53749 112421959.64249      1592.48449        48.999    21393185.60846
  87601548.74446      1240.89546        42.604
  24875956.14844 130724056.13344     -3538.83644        38.105    24875956.15741
 101862911.14241     -2757.53941        25.325
  22149237.70949 116395094.12549     -2804.53949        48.425    22149236.91544
  90697514.10544     -2185.35944        38.532
  20693223.03949 108743659.09549        87.10549        48.268    20693222.17646
  84735336.45846        67.87146        43.001
  23272401.89246 122297376.17146     -2758.65246        42.557    23272401.17542
  95296673.70442     -2149.60242        32.588
  20883523.03449 109743699.23049      -424.81649        48.743    20883521.45247
  85514579.11447      -331.02747        43.856
  22981914.02346 120770785.57646      1959.71946        42.192    22981916.85945
  94107125.19645      1527.05545        39.678
  22269042.67748 117024635.55848       844.04348        45.560    22269044.51245
  91188031.88045       657.69145        40.654
  23665989.52147 124365641.33347      3500.40647        44.241    23665992.35643
  96908309.59143      2727.58643        35.031
 17  8 21  0 46  0.0000000  0 10G 8G10G13G15G18G20G21G24G27G32
  24615786.18246 129356829.35146      2574.50046        41.814    24615789.32142
 100797550.82642      2006.10242        34.378
  21384113.19449 112374295.31049      1585.18849        49.003    21384115.40946
  87564407.71646      1235.20746        43.170
  24896171.15044 130830285.04544     -3543.60244        38.589    24896170.66341
 101945686.92941     -2761.25041        30.753
  22165280.24049 116479398.81049     -2815.71949        48.403    22165279.08444
  90763206.07244     -2194.07044        37.804
  20692744.34249 108741144.13249        80.57049        48.160    20692743.50646
  84733376.74746        62.77746        42.609
  23288157.11246 122380169.50146     -2761.02046        41.617    23288156.21642
  95361187.97642     -2151.44542        33.358
  20885985.75049 109756641.31849      -437.88749        48.235    20885984.37247
  85524663.85747      -341.21547        44.737
  22970765.08246 120712197.20946      1946.31646        42.548    22970767.98644
  94061471.93044      1516.60544        38.842
  22264279.70447 116999607.05047       824.57447        45.051    22264282.06645
  91168529.14445       642.52345        40.984
  23646024.95147 124260724.53147      3494.17647        44.588    23646027.29443
  96826556.25443      2722.73043        35.563
 17  8 21  0 46 30.0000000  0 10G 8G10G13G15G18G20G21G24G27G32
  24601124.28145 129279782.36045      2561.52345        41.022    24601127.21442
 100737514.24542      1995.98842        33.734
  21375084.92549 112326851.20049      1577.85249        49.238    21375087.03746
  87527438.28446      1229.49246        43.285
  24916411.94844 130936652.79944     -3547.92244        38.678    24916412.36142
 102028570.91742     -2764.61742        33.857
  22181385.67749 116564034.22749     -2826.76249        48.322    22181384.72344
  90829155.73444     -2202.67644        38.338
  20692302.88349 108738824.42349        74.06249        48.130    20692302.07246
  84731569.17946        57.70746        42.818
  23303926.65046 122463038.99346     -2763.87546        41.605    23303925.66842
  95425761.60142     -2153.67242        33.887
  20888522.34749 109769972.35749      -450.92249        48.266    20888521.22447
  85535051.67547      -351.37147        44.124
  22959693.24246 120654014.11446      1932.41046        42.320    22959696.15945
  94016134.45245      1505.77045        39.726
  22259628.46848 116975164.37748       804.97748        45.586    22259630.87046
  91149482.90646       627.25046        41.573
  23626095.81746 124155995.61146      3487.59446        43.074    23626098.28144
  96744949.36444      2717.60544        36.996
 17  8 21  0 47  0.0000000  0 10G 8G10G13G15G18G20G21G24G27G32
  24586535.63646 129203116.19546      2549.22346        43.213    24586538.61042
 100677774.40542      1986.40242        32.942
  21366098.48549 112279627.35249      1570.51249        49.058    21366100.57446
  87490640.48746      1223.77346        43.150
  24936678.95645 131043156.80445     -3552.16045        39.186    24936679.65642
 102111561.02142     -2767.92242        32.341
  22197553.69749 116648997.88049     -2837.61349        48.406    22197553.02144
  90895361.16544     -2211.12944        38.765
  20691898.57549 108736699.38049        67.69949        48.337    20691897.65746
  84729913.30446        52.75046        42.880
  23319710.39346 122545984.01446     -2766.05146        42.261    23319709.94042
  95490394.03042     -2155.36742        32.918
  20891133.18249 109783693.28049      -463.91049        48.216    20891132.17147
  85545743.30647      -361.49247        43.958
  22948698.73146 120596239.43046      1919.07846        41.836    22948702.06145
  93971115.26945      1495.38745        40.284
  22255088.82447 116951308.22347       785.41047        45.304    22255091.45946
  91130893.69746       612.00446        41.523
  23606202.27646 124051456.53346      3481.32446        43.126    23606205.15344
  96663490.40944      2712.71944        37.380
 17  8 21  0 47 30.0000000  0 10G 8G10G13G15G18G20G21G24G27G32
  24572020.11945 129126833.18345      2536.57845        40.937    24572022.91644
 100618333.09344      1976.55144        36.780
  21357153.93849 112232623.80649      1563.11349        49.061    21357156.04847
  87454014.35347      1218.00847        43.602
  24956971.23145 131149794.69145     -3556.52745        39.427    24956971.90442
 102194655.47942     -2771.32442        32.504
  22213783.64549 116734286.80749     -2848.39149        48.328    22213783.27145
  90961820.05445     -2219.52745        39.060
  20691531.35449 108734769.29849        61.02749        48.379    20691530.27546
  84728409.35346        47.55146        43.139
  23335508.42445 122629004.09445     -2768.55945        41.082    23335508.40642
  95555084.97342     -2157.32042        34.157
  20893818.41749 109797804.61449      -476.85249        48.063    20893817.44047
  85556739.14847      -371.57447        44.271
  22937782.68746 120538875.50046      1905.19946        41.493    22937786.00644
  93926416.11444      1484.56644        38.363
  22250660.84648 116928039.33648       765.71948        45.813    22250663.69546
  91112762.10546       596.66046        41.252
  23586345.45346 123947109.37246      3474.78946        42.020    23586348.69844
  96582180.99244      2707.62544        36.927
 17  8 21  0 48  0.0000000  0 10G 8G10G13G15G18G20G21G24G27G32
  24557576.26745 129050935.41245      2523.54345        39.343    24557580.14843
 100559192.04643      1966.39543        34.856
  21348251.31549 112185840.66849      1555.73849        48.974    21348253.59047
  87417559.96747      1212.26247        43.541
  24977289.01645 131256563.83845     -3560.97345        39.598    24977288.80442
 102277852.22142     -2774.78542        32.329
  22230074.97349 116819898.77649     -2859.21149        48.280    22230074.94345
  91028530.65245     -2227.96145        39.879
  20691201.00849 108733033.33849        54.54749        48.347    20691199.88746
  84727056.65946        42.50046        42.938
  23351320.82146 122712098.48846     -2770.87546        42.039    23351320.25843
  95619833.85243     -2159.12143        34.840
  20896578.25449 109812307.47649      -489.94149        48.023    20896577.16747
  85568040.07047      -381.77747        44.379
  22926945.33546 120481925.15146      1891.62546        42.655    22926948.50944
  93882039.20644      1473.99244        38.374
  22246344.93748 116905358.37248       746.24248        46.105    22246347.81745
  91095088.63345       581.51645        41.031
  23566525.66247 123842956.11247      3468.56647        43.541    23566528.92444
  96501022.64444      2702.77744        36.747
 17  8 21  0 48 30.0000000  0 10G 8G10G13G15G18G20G21G24G27G32
  24543207.22446 128975425.47846      2510.93046        42.367    24543211.06843
 100500353.16043      1956.56643        34.990
  21339390.65349 112139277.96449      1548.56249        49.070    21339393.18747
  87381277.35647      1206.66847        43.344
  24997631.19244 131363461.66244     -3565.34444        38.800    24997631.39341
 102361149.24241     -2778.18841        13.740
  22246427.31949 116905831.03849     -2869.63349        47.927    22246427.42445
  91095490.82845     -2236.08245        39.422
  20690907.55149 108731491.35649        48.22749        48.398    20690906.43046
  84725855.12646        37.57446        42.890
  23367147.56046 122795266.68246     -2773.48846        41.131    23367146.90241
  95684640.23941     -2161.16441        31.927
  20899412.69249 109827202.19249      -503.06249        48.431    20899411.59947
  85579646.33847      -392.00047        44.129
  22916187.17346 120425391.17246      1877.52746        43.017    22916190.43345
  93837986.79245      1463.00445        39.337
  22242141.00048 116883266.05348       726.60248        46.127    22242143.76445
  91077873.84545       566.18045        40.831
  23546743.26147 123738998.74547      3462.07847        44.371    23546746.56544
  96420016.97044      2697.71944        36.805
 17  8 21  0 49  0.0000000  0 10G 8G10G13G15G18G20G21G24G27G32
  24528912.09944 128900305.66844      2497.03544        38.424    24528916.10643
 100441818.28243      1945.73843        34.879
  21330571.99349 112092935.77349      1541.07449        48.972    21330574.49546
  87345166.57646      1200.83246        43.192
  25017997.30445 131470485.76145     -3569.80545        39.726    25017997.28941
 102444544.62641     -2781.66841        30.544
  22262840.02049 116992080.63749     -2880.24649        48.028    22262840.03844
  91162698.29344     -2244.35244        38.658
  20690651.15249 108730143.92549        41.69549        48.250    20690650.12746
  84724805.17146        32.48846        43.180
  23382987.40845 122878508.38845     -2776.16045        40.941    23382987.41942
  95749503.84042     -2163.24642        34.130
  20902321.83149 109842489.66949      -516.12149        48.140    20902320.79447
  85591558.64947      -402.17647        44.677
  22905508.90046 120369276.08746      1863.59446        42.093    22905512.34644
  93794260.77944      1452.14844        37.988
  22238049.22447 116861762.96747       706.87147        45.447    22238051.77845
  91061118.19545       550.80545        41.005
  23526998.59447 123635239.27647      3455.35547        44.285    23527001.32742
  96339165.45842      2692.48042        32.888
 17  8 21  0 49 30.0000000  0 10G 8G10G13G15G18G20G21G24G27G32
  24514691.75546 128825578.40046      2484.54346        42.228    24514695.47242
 100383589.28342      1936.00442        33.523
  21321795.10449 112046814.14349      1533.85549        48.694    21321797.50846
  87309227.65246      1195.20746        43.159
  25038386.84945 131577633.70045     -3573.73045        39.188    25038386.92941
 102528036.54541     -2784.72741        32.220
  22279312.86849 117078645.36749     -2890.80149        48.088    22279312.54345
  91230151.31545     -2252.57445        39.071
  20690431.53249 108728989.99749        35.31649        48.295    20690430.71546
  84723906.01446        27.51646        43.071
  23398841.87646 122961823.01146     -2778.35246        42.710    23398841.43942
  95814424.32542     -2164.95342        32.743
  20905305.82149 109858170.65949      -529.18049        48.306    20905304.78847
  85603777.60047      -412.35247        44.538
  22894910.64446 120313583.01646      1849.28546        42.711    22894913.81244
  93750863.60244      1441.00044        37.682
  22234069.65648 116840849.75048       687.27048        45.850    22234071.94345
  91044822.17645       535.53145        40.538
  23507291.83847 123531679.67147      3448.62547        43.374    23507294.31944
  96258469.68944      2687.23844        36.756
 17  8 21  0 50  0.0000000  0 10G 8G10G13G15G18G20G21G24G27G32
  24500547.13546 128751245.53446      2471.30546        41.630    24500550.29644
 100325667.58144      1925.68844        37.296
  21313060.35749 112000913.14449      1526.41849        48.872    21313062.61546
  87273460.65346      1189.41446        42.923
  25058799.46244 131684902.71744     -3577.50044        38.555    25058799.40741
 102611622.77041     -2787.66441        29.958
  22295845.17149 117165522.11149     -2901.19149        48.664    22295844.77844
  91297847.45644     -2260.67244        38.714
  20690248.66549 108728029.55749        28.75449        48.131    20690248.18446
  84723157.62246        22.40246        43.237
  23414709.91946 123045209.88546     -2780.72746        41.238    23414709.79242
  95879401.09142     -2166.80542        34.317
  20908364.87349 109874245.78549      -542.45349        48.297    20908363.71847
  85616303.67047      -422.69547        44.163
  22884393.47346 120258314.28046      1835.21946        42.413    22884396.64544
  93707797.08244      1430.03944        37.955
  22230202.38448 116820526.97248       667.48048        46.351    22230204.01545
  91028986.26845       520.11345        39.569
  23487623.28146 123428321.90946      3441.86346        42.956    23487626.06243
  96177931.21443      2681.96943        34.630
 17  8 21  0 50 30.0000000  0 10G 8G10G13G15G18G20G21G24G27G32
  24486477.88647 128677309.62347      2457.88347        43.609    24486480.71442
 100268055.22642      1915.23042        34.159
  21304367.67949 111955232.85149      1518.89149        48.770    21304369.78947
  87237865.63247      1183.54747        43.341
  25079234.77644 131792290.51844     -3581.67644        37.405    25079234.57742
 102695301.58142     -2790.92242        33.008
  22312436.24849 117252708.41949     -2911.36349        48.448    22312435.85344
  91365784.83644     -2268.59844        38.722
  20690102.60549 108727262.13849        22.39149        48.265    20690102.43147
  84722559.62447        17.44547        43.562
  23430591.68546 123128668.73946     -2783.36746        41.960    23430591.73643
  95944433.91643     -2168.85943        35.225
  20911499.02449 109890715.81049      -555.58649        48.369    20911497.86447
  85629137.44847      -432.92647        44.530
  22873957.78246 120203472.60746      1820.56246        43.157    22873960.50545
  93665063.33945      1418.61745        39.207
  22226447.55248 116800795.19048       647.84848        46.017    22226448.95545
  91013610.86745       504.79345        39.984
  23467993.26246 123325167.95546      3435.09846        42.284    23467996.84845
  96097551.57045      2676.69545        38.955
 17  8 21  0 51  0.0000000  0 10G 8G10G13G15G18G20G21G24G27G32
  24472484.56246 128603773.09446      2444.72346        41.331    24472487.18942
 100210754.05742      1904.97742        34.370
  21295717.05849 111909773.27149      1511.55149        49.134    21295719.04846
  87202442.59046      1177.82846        43.025
  25099692.13944 131899794.75844     -3585.30544        38.756    25099691.99942
 102779071.11842     -2793.74642        33.355
  22329085.68149 117340201.69749     -2921.64549        48.659    22329085.15244
  91433961.40744     -2276.60944        38.234
  20689993.30849 108726687.51649        15.92649        48.274    20689993.21247
  84722111.86947        12.40647        43.562
  23446487.35046 123212198.91746     -2785.48446        41.821    23446486.73844
  96009522.37144     -2170.51244        36.822
  20914708.48049 109907581.59049      -568.94949        48.582    20914707.47547
  85642279.60647      -443.34047        44.252
  22863603.71846 120149060.57046      1806.39546        42.729    22863606.03945
  93622664.35945      1407.57845        39.000
  22222805.21448 116781654.97448       628.28548        45.843    22222806.35245
  90998696.40945       489.51245        40.205
  23448402.67647 123222219.78347      3428.24247        43.729    23448406.72644
  96017332.30044      2671.35544        37.507
 17  8 21  0 51 30.0000000  0 10G 8G10G13G15G18G20G21G24G27G32
  24458567.21845 128530638.03845      2431.56245        40.162    24458569.80343
 100153765.76743      1894.72343        35.602
  21287108.56749 111864534.55849      1504.29349        49.091    21287110.43946
  87167191.65146      1172.17246        43.299
  25120171.00244 132007412.52344     -3589.12944        37.511    25120170.81641
 102862929.11541     -2796.73041        29.873
  22345792.87849 117427999.44949     -2931.55549        48.028    22345792.51344
  91502375.23344     -2284.33244        38.625
  20689920.76749 108726306.08049         9.56249        48.216    20689920.66147
  84721814.64847         7.44947        43.837
  23462395.91145 123295799.83545     -2787.94545        40.758    23462395.29543
  96074665.91343     -2172.43043        36.349
  20917993.39849 109924843.39649      -582.05149        48.585    20917992.40047
  85655730.35447      -453.55147        43.976
  22853331.53146 120095080.94146      1792.14546        42.476    22853333.59644
  93580602.32744      1396.47344        37.709
  22219275.43248 116763106.77648       608.38748        46.072    22219276.21645
  90984243.29445       474.06245        40.422
  23428851.91447 123119479.40047      3421.09047        43.810    23428855.70043
  95937274.94443      2665.78543        36.394
 17  8 21  0 52  0.0000000  0 10G 8G10G13G15G18G20G21G24G27G32
  24444727.33346 128457906.93446      2417.72346        42.970    24444729.14042
 100097092.17342      1883.93842        33.430
  21278542.07049 111819516.70049      1497.04749        48.998    21278543.87946
  87132112.80346      1166.52746        43.188
  25140670.91944 132115141.70144     -3592.98444        38.708    25140671.20941
 102946873.94841     -2799.73041        31.648
  22362557.48649 117516098.64049     -2941.51249        48.149    22362557.59145
  91571023.92245     -2292.09045        39.001
  20689884.82649 108726116.82849         3.21949        48.486    20689884.69247
  84721667.18247         2.50447        43.591
  23478317.94045 123379471.31645     -2790.05145        41.102    23478317.64643
  96139864.43343     -2174.07043        35.609
  20921353.82349 109942502.22149      -595.31649        48.606    20921352.86647
  85669490.47247      -463.88747        44.424
  22843142.06146 120041536.09746      1777.57846        42.834    22843144.50545
  93538879.11545      1385.12145        40.150
  22215858.56548 116745151.16548       588.65648        46.086    22215859.44245
  90970251.91945       458.69145        40.350
  23409341.19847 123016948.73347      3414.18447        44.315    23409344.70744
  95857380.95644      2660.39844        36.920
 17  8 21  0 52 30.0000000  0 10G 8G10G13G15G18G20G21G24G27G32
  24430964.52445 128385581.77945      2403.82845        40.905    24430966.58242
 100040734.93842      1873.10942        33.375
  21270017.47649 111774719.79749      1489.60549        49.078    21270019.45946
  87097206.14046      1160.72746        43.315
  25161191.90545 132222979.47045     -3596.10545        39.292    25161191.77541
 103030903.41541     -2802.16441        31.511
  22379379.08648 117604496.91148     -2951.71148        47.524    22379379.30544
  91639905.67844     -2300.03944        38.680
  20689885.55649 108726120.07249        -3.28149        48.455    20689885.33147
  84721669.70147        -2.55947        43.714
  23494253.46945 123463212.62245     -2792.59845        40.941    23494253.24643
  96205117.37243     -2176.05543        34.560
  20924790.02249 109960559.07749      -608.50049        48.559    20924788.95147
  85683560.74147      -474.16047        44.537
  22833036.17746 119988429.04546      1762.99246        43.112    22833038.82244
  93497497.03444      1373.75844        37.854
  22212554.64448 116727788.55548       568.86348        46.106    22212555.95445
  90956722.61045       443.26645        40.897
  23389870.81847 122914629.75247      3407.23047        44.426    23389873.72943
  95777651.91643      2654.98043        35.907
 17  8 21  0 53  0.0000000  0  9G 8G10G15G18G20G21G24G27G32
  24417279.02145 128313665.12145      2390.74245        40.037    24417281.32442
  99984696.00142      1862.91442        33.261
  21261534.82149 111730143.96049      1482.10249        48.757    21261537.20147
  87062471.73647      1154.88347        43.522
  22396257.03348 117693191.74748     -2961.40248        47.659    22396257.15244
  91709018.51844     -2307.59044        38.794
  20689922.55749 108726315.41949        -9.84049        48.001    20689922.28947
  84721821.90447        -7.67247        43.644
  23510201.88545 123547023.18145     -2794.88745        38.999    23510201.83243
  96270424.30143     -2177.83643        36.390
  20928301.88649 109979013.60549      -621.75049        48.567    20928300.61647
  85697940.88147      -484.48447        44.084
  22823013.64047 119935761.85347      1748.33647        43.367    22823016.23744
  93456457.69044      1362.33644        38.621
  22209363.55647 116711019.42647       549.08647        45.272    22209365.06845
  90943655.74545       427.85545        40.101
  23370440.70446 122812524.30546      3400.10246        42.139    23370443.72342
  95698089.34242      2649.42642        33.092
 17  8 21  0 53 30.0000000  0  9G 8G10G15G18G20G21G24G27G32
  24403671.69845 128242158.87945      2376.70745        38.895    24403673.63943
  99928976.83943      1851.97743        35.800
  21253094.45149 111685789.15649      1474.93849        48.455    21253096.71546
  87027909.56446      1149.29746        43.126
  22413191.18649 117782180.24849     -2971.16449        48.729    22413191.35145
  91778360.19345     -2315.19545        39.750
  20689996.17049 108726702.68049       -16.09449        48.615    20689995.73147
  84722123.67347       -12.54347        43.702
  23526163.94346 123630902.76546     -2797.10246        41.209    23526163.51343
  96335784.98043     -2179.56243        35.075
  20931889.60249 109997866.74149      -635.15249        48.128    20931888.11347
  85712631.64547      -494.92647        44.650
  22813075.58245 119883537.76145      1733.30145        40.960    22813077.85743
  93415763.61243      1350.62543        36.530
  22206285.55047 116694844.10847       529.43047        44.512    22206287.06445
  90931051.61845       412.53945        40.355
  23351051.14046 122710634.52146      3392.44946        41.375    23351054.59742
  95618694.74442      2643.45742        33.642
 17  8 21  0 54  0.0000000  0  9G 8G10G15G18G20G21G24G27G32
  24390142.62444 128171065.28844      2362.88344        37.153    24390145.31842
  99873579.29242      1841.20342        33.594
  21244696.11949 111641655.52649      1467.42249        48.246    21244698.38847
  86993519.73547      1143.44147        43.521
  22430180.51849 117871459.59249     -2980.63349        47.925    22430180.76044
  91847928.49844     -2322.57444        38.385
  20690106.34549 108727281.36949       -22.64149        48.145    20690105.71247
  84722574.59247       -17.64547        44.118
  23542138.72245 123714850.67445     -2799.20745        39.818    23542138.52341
  96401198.90941     -2181.20341        30.240
  20935553.31449 110017119.68749      -648.43449        48.454    20935551.87047
  85727633.92747      -505.27747        44.178
  22803221.66145 119831758.65345      1718.46145        41.014    22803224.65844
  93375416.28144      1339.05944        38.610
  22203320.59247 116679263.04747       509.36347        44.382    22203322.34845
  90918910.53245       396.90245        39.868
  23331703.47245 122608962.14945      3385.18845        41.050    23331706.48943
  95539469.57343      2637.80543        34.976
 17  8 21  0 54 30.0000000  0  9G 8G10G15G18G20G21G24G27G32
  24376692.79943 128100386.86843      2349.20343        36.181    24376696.03145
  99818505.22745      1830.54745        39.407
  21236339.74749 111597743.09049      1460.07849        48.009    21236342.26246
  86959302.26946      1137.71946        43.312
  22447224.75849 117961027.47749     -2990.44549        48.358    22447224.90644
  91917721.62244     -2330.21944        37.867
  20690252.92549 108728051.43949       -28.82049        48.223    20690252.20646
  84723174.64346       -22.46146        43.277
  23558126.30545 123798866.75445     -2801.64545        40.809    23558125.92342
  96466665.94742     -2183.10242        33.174
  20939293.12949 110036772.75749      -661.71149        48.413    20939291.82647
  85742948.00147      -515.62147        44.054
  22793453.70246 119780427.14346      1703.14846        42.598    22793456.40844
  93335417.72244      1327.12544        36.950
  22200468.88947 116664276.60647       489.53947        44.129    22200470.56544
  90907232.78744       381.47744        38.635
  23312398.04746 122507509.24946      3377.93846        41.586    23312400.95144
  95460415.47244      2632.16044        37.606
 17  8 21  0 55  0.0000000  0  9G 8G10G15G18G20G21G24G27G32
  24363322.39345 128030125.50345      2334.72345        39.424    24363325.96043
  99763756.17243      1819.26243        36.311
  21228025.85749 111554051.96749      1452.59049        49.330    21228028.19947
  86925257.24647      1131.88747        43.994
  22464323.48649 118050880.96149     -3000.00849        47.995    22464323.61944
  91987737.32244     -2337.67244        37.699
  20690436.01149 108729012.95649       -35.34049        48.484    20690435.36547
  84723923.89847       -27.53947        43.640
  23574127.09846 123882950.07146     -2803.91446        41.642    23574126.81641
  96532185.35741     -2184.87141        31.340
  20943109.05149 110056826.29149      -675.10249        48.310    20943107.94847
  85758574.12747      -526.05547        44.031
  22783771.81547 119729546.21947      1688.52347        43.636    22783774.53845
  93295770.27045      1315.73045        39.458
  22197730.36548 116649885.07648       469.80548        46.291    22197731.75645
  90896018.59245       366.07845        39.964
  23293134.62947 122406277.75747      3370.64547        44.719    23293137.30744
  95381533.77044      2626.47344        36.772
 17  8 21  0 55 30.0000000  0  9G 8G10G15G18G20G21G24G27G32
  24350032.38545 127960283.81445      2320.69145        40.928    24350035.72242
  99709334.12542      1808.32842        33.939
  21219753.83949 111510582.23249      1445.32849        49.363    21219756.20247
  86891384.73947      1126.22747        43.575
  22481475.68848 118141017.66048     -3009.17648        47.142    22481476.04444
  92057973.68144     -2344.81644        38.402
  20690655.43849 108730165.80749       -41.65649        48.491    20690654.82846
  84724822.23646       -32.46146        43.082
  23590140.25845 123967100.48745     -2806.41445        40.157    23590140.33742
  96597757.07442     -2186.82442        34.363
  20947001.37649 110077281.13949      -688.42249        48.375    20947000.30147
  85774512.97847      -536.43847        44.399
  22774175.89346 119679117.91346      1673.21146        43.278    22774178.94245
  93256475.52645      1303.79745        39.677
  22195105.02648 116636088.80748       449.77748        46.177    22195106.59445
  90885268.24345       350.47345        39.795
  23273913.29847 122305269.49047      3363.05947        44.135    23273916.37043
  95302826.12043      2620.56643        36.219
 17  8 21  0 56  0.0000000  0  9G 8G10G15G18G20G21G24G27G32
  24336822.72746 127890863.65646      2307.18446        41.396    24336825.48943
  99655240.45943      1797.80143        34.898
  21211523.91649 111467333.93149      1438.02049        49.145    21211526.21747
  86857684.77047      1120.53147        43.419
  22498681.44249 118231434.76349     -3018.62149        47.990    22498681.81944
  92128428.54744     -2352.17644        38.581
  20690911.00349 108731509.23949       -47.89149        48.218    20690910.35547
  84725869.06647       -37.32047        43.882
  23606166.36245 124051317.67345     -2808.38745        40.361    23606166.28443
  96663380.85743     -2188.35543        35.848
  20950970.15349 110098137.60049      -701.93049        48.601    20950969.15547
  85790764.76047      -546.96147        43.684
  22764666.46546 119629145.10346      1658.23046        42.722    22764669.30645
  93217535.67645      1292.12545        41.021
  22192592.88548 116622888.06848       430.07048        45.987    22192594.57545
  90874981.96545       335.11745        40.087
  23254734.62847 122204486.45147      3355.65247        43.850    23254737.75044
  95224293.92244      2614.78944        36.756
 17  8 21  0 56 30.0000000  0  9G 8G10G15G18G20G21G24G27G32
  24323692.83145 127821866.92445      2292.82045        39.884    24323696.20944
  99601476.83644      1786.61344        37.345
  21203336.03449 111424307.14149      1430.56649        49.147    21203338.45547
  86824157.41847      1114.72347        43.978
  22515940.22148 118322129.93348     -3027.83648        47.759    22515940.32544
  92199100.09844     -2359.35544        38.855
  20691202.87449 108733043.27149       -54.30149        48.475    20691202.27246
  84727064.42146       -42.31646        43.263
  23622204.66845 124135600.64945     -2810.57445        40.825    23622205.27443
  96729055.85843     -2190.06243        34.571
  20955015.46749 110119396.21449      -715.28149        48.313    20955014.62447
  85807329.90747      -557.36347        43.993
  22755243.93246 119579630.30646      1642.62146        42.794    22755246.84944
  93178952.75244      1279.96144        38.556
  22190194.04348 116610283.12348       410.18848        46.063    22190195.79345
  90865159.93745       319.66845        39.739
  23235598.99847 122103930.48147      3347.98047        44.384    23235602.57243
  95145938.71443      2608.81243        36.364
 17  8 21  0 57  0.0000000  0 10G 8G10G14G15G18G20G21G24G27G32
  24310643.75746 127753296.22546      2278.52346        41.225    24310647.45143
  99548045.15243      1775.46943        34.899
  21195190.38649 111381501.93849      1423.08249        49.331    21195192.99747
  86790802.73347      1108.89147        43.873
  24671189.69644 129647971.66144      3547.00844        38.737    24671190.37141
 101024386.72041      2763.89841        30.607
  22533251.36349 118413100.06849     -3036.97749        47.871    22533251.24745
  92269985.91345     -2366.47745        38.966
  20691531.04649 108734767.80349       -60.71949        48.394    20691530.51946
  84728408.20846       -47.31646        43.209
  23638255.73446 124219949.33246     -2812.64846        41.846    23638256.54642
  96794782.02942     -2191.67642        34.084
  20959137.50349 110141057.66749      -728.76249        48.422    20959136.52247
  85824208.96247      -567.87147        43.748
  22745909.04846 119530575.86746      1627.37946        43.064    22745911.97944
  93140728.54344      1268.08644        38.603
  22187908.67948 116598274.20248       390.29348        46.099    22187910.37545
  90855802.34445       304.12145        39.772
  23216507.42547 122003603.54447      3340.45347        44.748    23216511.11144
  95067761.94444      2602.94944        36.857
 17  8 21  0 57 30.0000000  0 10G 8G10G14G15G18G20G21G24G27G32
  24297676.67046 127685153.46746      2264.57046        41.301    24297679.96843
  99494946.89143      1764.59843        35.180
  21187086.96149 111338918.41449      1415.74249        49.257    21187089.53047
  86757620.78947      1103.17247        44.077
  24650949.81344 129541609.14644      3543.58244        37.994    24650950.72841
 100941506.89441      2761.23041        30.840
  22550614.35848 118504343.08148     -3045.94548        47.256    22550614.43245
  92341084.34345     -2373.46945        38.989
  20691895.49349 108736682.78649       -66.97349        48.492    20691894.88346
  84729900.40546       -52.19146        43.027
  23654319.51846 124304362.97646     -2814.82846        41.569    23654319.99642
  96860558.89942     -2193.37542        33.044
  20963336.32349 110163122.43749      -742.23049        48.633    20963335.23147
  85841402.29047      -578.36347        44.001
  22736662.49747 119481984.19647      1612.02047        43.718    22736664.98744
  93102864.93144      1256.11744        38.218
  22185736.75447 116586861.54447       370.50447        45.285    22185738.42445
  90846909.36945       288.69945        40.088
  23197460.07647 121903507.56447      3332.50447        45.013    23197463.53444
  94989765.10244      2596.75444        38.704
 17  8 21  0 58  0.0000000  0 10G 8G10G14G15G18G20G21G24G27G32
  24284791.16745 127617440.93445      2249.83245        40.764    24284794.83343
  99442183.91443      1753.11343        35.179
  21179026.00449 111296556.62049      1408.46549        49.624    21179028.12447
  86724611.61547      1097.50047        43.656
  24630729.20044 129435348.56744      3539.81644        38.168    24630730.27442
 100858706.55542      2758.29742        34.320
  22568028.66448 118595856.18348     -3054.89548        47.541    22568028.88244
  92412393.23144     -2380.44144        37.370
  20692296.17549 108738787.95849       -73.35249        48.294    20692295.42247
  84731540.79547       -57.16047        43.820
  23670394.96445 124388841.47545     -2817.14545        39.434    23670395.61144
  96926386.26644     -2195.18444        37.616
  20967611.95049 110185590.73249      -755.72749        48.498    20967610.86047
  85858910.04847      -588.88347        44.135
  22727504.64047 119433857.59947      1596.53547        43.356    22727506.78445
  93065363.69845      1244.05145        39.780
  22183678.32847 116576045.28947       350.65247        45.441    22183680.14245
  90838481.11245       273.27045        40.223
  23178456.78747 121803644.32447      3324.71547        45.459    23178460.35044
  94911949.66644      2590.68444        38.669
 17  8 21  0 58 30.0000000  0 10G 8G10G14G15G18G20G21G24G27G32
  24271988.37746 127550160.88246      2235.56646        42.125    24271991.67042
  99389757.92942      1741.99642        33.912
  21171007.21049 111254416.69349      1400.87949        49.659    21171008.87347
  86691775.31247      1091.59047        43.533
  24610528.03044 129329192.00944      3536.74644        38.050    24610529.49541
 100775987.27141      2755.90241        29.581
  22585493.86348 118687636.49848     -3063.67648        47.023    22585493.73844
  92483910.34444     -2387.28144        38.050
  20692733.03349 108741082.99749       -79.66449        48.638    20692731.97046
  84733329.12346       -62.07846        43.216
  23686483.15745 124473384.54545     -2818.98845        41.044    23686483.14143
  96992263.95843     -2196.61743        35.001
  20971964.62349 110208463.83749      -769.27749        48.690    20971963.49547
  85876733.23547      -599.44147        43.855
  22718435.48447 119386198.85347      1580.82047        43.419    22718438.10045
  93028227.02645      1231.80545        39.112
  22181733.71948 116565825.59948       330.71948        45.680    22181735.44745
  90830517.73445       257.69945        40.428
  23159498.37847 121704015.81947      3316.91047        44.001    23159501.14344
  94834317.07744      2584.60244        37.851
 17  8 21  0 59  0.0000000  0 10G 8G10G14G15G18G20G21G24G27G32
  24259268.37645 127483314.80245      2220.95345        40.660    24259271.06043
  99337670.06843      1730.60943        35.994
  21163030.40149 111212498.63349      1393.54749        49.320    21163032.05847
  86659111.89747      1085.87947        43.872
  24590347.12545 129223141.37245      3533.16445        39.425    24590348.86741
 100693350.51141      2753.11341        24.532
  22603009.44648 118779681.58848     -3072.64148        47.648    22603009.37244
  92555633.76844     -2394.27044        37.598
  20693205.96249 108743567.96849       -86.06249        48.655    20693204.84046
  84735265.46046       -67.06646        43.153
  23702583.42245 124557991.08245     -2821.52345        40.808    23702583.23342
  97058191.12242     -2198.59442        33.846
  20976394.36149 110231741.90849      -782.64549        48.469    20976393.11147
  85894871.98847      -609.85547        44.113
  22709455.68047 119339010.00447      1565.19947        43.340    22709458.50345
  92991456.53445      1219.63345        39.758
  22179902.51847 116556202.62847       310.98047        45.382    22179904.26945
  90823019.32045       242.32045        40.157
  23140584.54247 121604623.87947      3309.01247        44.730    23140587.63544
  94756868.87344      2578.44944        36.999
 17  8 21  0 59 30.0000000  0 10G 8G10G14G15G18G20G21G24G27G32
  24246630.92044 127416905.59644      2206.06244        38.570    24246633.26744
  99285922.63444      1719.00844        38.214
  21155095.95149 111170802.59549      1386.07049        49.689    21155097.75047
  86626621.50047      1080.05147        43.801
  24570187.18345 129117198.87245      3529.63745        39.839    24570188.16243
 100610798.02743      2750.36743        34.795
  22620575.02748 118871988.88548     -3081.08648        47.190    22620574.99244
  92627561.52044     -2400.84844        38.659
  20693714.88149 108746242.31149       -92.33649        48.481    20693713.86646
  84737349.36046       -71.95346        43.299
  23718695.93246 124642660.98846     -2823.23446        41.954    23718694.69241
  97124167.68741     -2199.92641        30.051
  20980901.22649 110255425.18449      -796.17249        48.730    20980899.85447
  85913326.47847      -620.39847        44.021
  22700565.91947 119292293.49347      1549.43447        43.949    22700568.65344
  92955054.07444      1207.34844        38.778
  22178184.72647 116547176.45347       290.96547        44.792    22178186.78945
  90815985.94045       226.72345        40.623
  23121715.99347 121505470.36947      3301.08247        43.794    23121718.68144
  94679606.45044      2572.27044        37.808
 17  8 21  1  0  0.0000000  0 10G 8G10G14G15G18G20G21G24G27G32
  24234076.45345 127350934.88245      2191.52345        40.883    24234079.51744
  99234516.96544      1707.67644        37.019
  21147203.71849 111129328.59949      1378.82049        49.559    21147205.57447
  86594304.10247      1074.40247        43.933
  24550047.93445 129011366.30345      3525.91445        39.831    24550048.48441
 100528331.12341      2747.46141        29.644
  22638190.08648 118964556.01948     -3089.97348        47.763    22638190.07744
  92699691.73644     -2407.77344        37.899
  20694259.80049 108749106.06349       -98.57449        48.349    20694258.92746
  84739580.84846       -76.81246        42.977
  23734820.23346 124727393.82646     -2825.57046        41.784    23734819.23042
  97190193.21842     -2201.74642        34.183
  20985485.20949 110279514.21049      -809.66849        48.573    20985483.94247
  85932097.14547      -630.91447        44.274
  22691766.58647 119246051.83047      1533.38347        44.170    22691768.80244
  92919021.62344      1194.84044        38.644
  22176580.61247 116538747.17047       271.10547        45.088    22176582.63445
  90809417.65745       211.24645        40.622
  23102893.62047 121406557.21647      3292.96147        44.999    23102896.40145
  94602531.30545      2565.94145        39.462
 17  8 21  1  0 30.0000000  0 10G 8G10G14G15G18G20G21G24G27G32
  24221606.89446 127285404.78146      2176.79746        41.876    24221609.28442
  99183454.56142      1696.20342        32.376
  21139353.64349 111088076.76749      1371.29749        49.448    21139355.57147
  86562159.82447      1068.53947        43.736
  24529929.79544 128905645.34744      3522.20344        38.119    24529930.35841
 100445951.24541      2744.63741        24.140
  22655853.77748 119057379.99948     -3098.44548        46.707    22655853.73244
  92772022.09244     -2414.37544        38.291
  20694840.71249 108752159.35749      -105.03149        48.470    20694839.97746
  84741960.03646       -81.84846        43.289
  23750956.10145 124812189.09845     -2827.66445        40.902    23750955.12042
  97256267.40242     -2203.38342        34.425
  20990146.60649 110304009.79149      -823.31249        48.711    20990145.40747
  85951184.60647      -641.54747        43.932
  22683057.94846 119200287.30846      1517.42246        42.945    22683059.99345
  92883360.95845      1182.40245        40.404
  22175090.20048 116530914.80448       251.18848        45.851    22175092.25345
  90803314.51145       195.72745        40.614
  23084116.96647 121307886.20747      3284.80147        45.035    23084119.38443
  94525644.85043      2559.58243        36.100
 17  8 21  1  1  0.0000000  0 10G 8G10G14G15G18G20G21G24G27G32
  24209221.13946 127220317.59446      2162.73046        41.176    24209223.48343
  99132737.26243      1685.24243        35.411
  21131545.87849 111047047.18449      1364.00049        49.562    21131547.99947
  86530188.73347      1062.85547        44.042
  24509832.96444 128800038.15244      3518.19544        38.236    24509833.66342
 100363660.07842      2741.44942        32.478
  22673565.87548 119150458.36048     -3106.89548        46.741    22673565.77144
  92844550.69044     -2420.96144        37.920
  20695457.63149 108755401.76749      -111.25049        48.460    20695457.06646
  84744486.59146       -86.69146        43.249
  23767103.77945 124897046.69445     -2829.66445        40.045    23767102.05542
  97322390.22642     -2204.93842        33.780
  20994885.36649 110328911.97649      -836.81649        48.829    20994884.12247
  85970588.90347      -652.06647        43.445
  22674440.11546 119155002.20846      1501.31246        43.303    22674442.56345
  92848073.89845      1169.85245        38.897
  22173713.35047 116523679.41547       231.25447        45.425    22173715.54645
  90797676.54645       180.15645        40.537
  23065387.26047 121209459.32747      3276.89547        45.301    23065389.38144
  94448948.59444      2553.42244        37.952
 17  8 21  1  1 30.0000000  0 10G 8G10G14G15G18G20G21G24G27G32
  24196919.80345 127155675.07145      2147.29745        40.788    24196922.93144
  99082366.50044      1673.21544        38.110
  21123780.45949 111006239.94149      1356.65649        49.392    21123782.63747
  86498390.89047      1057.13347        44.012
  24489758.58345 128694546.86345      3514.23445        38.974    24489759.83842
 100281459.25542      2738.36742        33.863
  22691326.04348 119243788.25548     -3115.19548        47.199    22691325.86344
  92917275.26844     -2427.43044        37.332
  20696110.57149 108758833.12249      -117.55149        48.431    20696110.03046
  84747160.37346       -91.60246        43.132
  23783263.64745 124981965.62045     -2831.53145        41.109    23783261.90142
  97388560.78642     -2206.39142        33.718
  20999701.71449 110354221.80149      -850.43049        48.772    20999700.42847
  85990310.83647      -662.67647        43.909
  22665913.85747 119110198.72847      1485.23047        43.434    22665916.45445
  92813162.12145      1157.32045        39.293
  22172450.24547 116517040.97547       211.29747        45.436    22172452.22846
  90792503.72846       164.64546        42.084
  23046703.78948 121111278.26248      3268.59448        45.755    23046705.78944
  94372443.91644      2546.95344        38.046
 17  8 21  1  2  0.0000000  0 10G 8G10G14G15G18G20G21G24G27G32
  24184704.06746 127091479.31446      2132.50046        42.061    24184707.33343
  99032343.84843      1661.68443        35.670
  21116057.25349 110965655.11049      1349.09049        49.369    21116059.52947
  86466766.35147      1051.23447        43.836
  24469706.31444 128589173.03544      3510.34044        38.347    24469708.08043
 100199349.89143      2735.33243        34.582
  22709133.55748 119337367.48548     -3123.40248        46.527    22709133.60445
  92990194.13045     -2433.82445        39.104
  20696799.53549 108762453.39749      -123.80149        48.412    20696798.98747
  84749981.36947       -96.47347        43.950
  23799434.81945 125066945.90945     -2833.45345        40.229    23799433.16742
  97454779.18942     -2207.89142        32.663
  21004595.51749 110379939.30949      -864.12149        48.658    21004594.23646
  86010350.43846      -673.34446        43.314
  22657479.84647 119065879.38147      1469.41447        43.748    22657482.52445
  92778627.59545      1144.99645        38.972
  22171300.70348 116510999.47748       191.31648        46.001    22171302.66945
  90787796.07145       149.07445        40.032
  23028067.64847 121013344.97247      3260.27347        44.282    23028069.96844
  94296132.30044      2540.46944        38.154
 17  8 21  1  2 30.0000000  0 10G 8G10G14G15G18G20G21G24G27G32
  24172573.46945 127027732.46645      2117.56245        40.975    24172576.52944
  98982671.02644      1650.04744        36.767
  21108376.53849 110925292.79349      1341.66849        49.689    21108378.83747
  86435315.18847      1045.45347        43.661
  24449676.91245 128483918.86345      3506.66045        40.053    24449678.65641
 100117333.74741      2732.46141        27.698
  22726987.85948 119431193.41648     -3131.66448        47.000    22726987.98844
  93063305.21944     -2440.26244        37.496
  20697524.50149 108766262.42949      -130.00049        48.652    20697523.82546
  84752949.44646      -101.30146        43.215
  23815617.09145 125151986.94745     -2835.78945        40.088    23815616.01143
  97521044.88443     -2209.70743        34.823
  21009566.83749 110406064.47349      -877.59049        48.725    21009565.56247
  86030707.70047      -683.84047        43.341
  22649138.93747 119022046.74047      1453.10247        43.736    22649141.39845
  92744472.29745      1132.28545        40.104
  22170264.80448 116505554.86848       171.50048        45.925    22170266.72945
  90783553.51645       133.63345        41.093
  23009478.96047 120915661.26947      3251.93447        45.031    23009481.43744
  94220015.18044      2533.97344        37.857
 17  8 21  1  3  0.0000000  0 10G 8G10G14G15G18G20G21G24G27G32
  24160528.58546 126964436.47046      2102.91846        42.264    24160532.10843
  98933349.50043      1638.63343        34.999
  21100738.23549 110885153.09449      1334.32449        49.425    21100740.58747
  86404037.50947      1039.73047        44.233
  24429670.94245 128378785.97945      3502.51645        40.654    24429672.33242
 100035412.11142      2729.23042        33.203
  22744888.88748 119525263.12948     -3139.66048        47.272    22744888.98544
  93136606.27444     -2446.49244        37.797
  20698285.34549 108770260.18549      -136.35549        48.587    20698284.48246
  84756064.57846      -106.25446        42.878
  23831811.25745 125237088.33345     -2837.38745        39.681    23831810.37342
  97587357.64842     -2210.95342        32.736
  21014615.92149 110432597.89549      -891.32449        48.557    21014614.71447
  86051383.08447      -694.54347        43.857
  22640890.95247 118978702.32647      1436.64147        43.729    22640893.22345
  92710697.46145      1119.45745        39.223
  22169342.42848 116500707.06648       151.56648        45.874    22169344.51645
  90779776.00345       118.10245        40.369
  22990937.77247 120818228.93747      3243.61747        44.916    22990940.56844
  94144093.95144      2527.49244        38.501
 17  8 21  1  3 30.0000000  0 10G 8G10G14G15G18G20G21G24G27G32
  24148570.13846 126901593.10846      2087.16446        42.441    24148572.98143
  98884380.66743      1626.35943        34.505
  21093142.31449 110845236.09349      1326.75849        49.663    21093144.68047
  86372933.35647      1033.83647        43.793
  24409688.25644 128273776.37644      3498.23044        38.263    24409689.64542
  99953586.56342      2725.89542        32.596
  22762836.03048 119619574.37748     -3147.85548        47.189    22762835.86044
  93210095.56244     -2452.87944        37.186
  20699082.08349 108774446.69049      -142.71149        48.554    20699081.05746
  84759326.79046      -111.20746        43.008
  23848016.87545 125322249.89345     -2839.73845        40.806    23848016.29541
  97653717.25741     -2212.78141        31.029
  21019742.75949 110459540.15349      -904.88349        48.311    21019741.82447
  86072377.03947      -705.10547        43.667
  22632736.37047 118935848.56147      1420.23847        43.841    22632738.39044
  92677304.92844      1106.67644        38.750
  22168533.19347 116496455.94647       131.71547        45.252    22168535.33946
  90776463.45846       102.63346        41.354
  22972445.61447 120721049.91547      3235.12947        45.047    22972447.87744
  94068370.07344      2520.87544        37.432
 17  8 21  1  4  0.0000000  0 10G 8G10G14G15G18G20G21G24G27G32
  24136698.43345 126839204.61345      2071.87145        40.817    24136700.47342
  98835766.25442      1614.44142        34.148
  21085588.92749 110805541.88049      1319.48849        49.619    21085591.17847
  86342002.80147      1028.16847        44.595
  24389729.02644 128168892.15344      3493.68444        37.599    24389730.66541
  99871858.69541      2722.34841        22.975
  22780828.46948 119714124.40548     -3155.63348        47.097    22780828.14544
  93283770.88044     -2458.93844        37.125
  20699914.40249 108778821.14149      -148.85949        48.367    20699913.32746
  84762735.45646      -115.99646        42.922
  23864234.42246 125407470.65846     -2841.67646        42.128    23864234.04443
  97720123.00843     -2214.29743        35.136
  21024947.45649 110486891.46749      -918.52049        48.581    21024946.74747
  86093689.74347      -715.73447        43.606
  22624675.53847 118893488.30047      1403.91047        43.778    22624677.52245
  92644296.93345      1093.95345        38.974
  22167837.47847 116492801.39147       111.93047        45.124    22167839.88446
  90773615.76346        87.21546        41.245
  22954001.57948 120624125.90748      3226.62948        45.884    22954003.48344
  93992844.90244      2514.25444        38.488
 17  8 21  1  4 30.0000000  0 10G 8G10G14G15G18G20G21G24G27G32
  24124912.67745 126777272.77145      2056.56645        39.328    24124914.48642
  98787507.69142      1602.51642        33.912
  21078077.80249 110766070.58449      1311.97749        49.540    21078080.31047
  86311245.95147      1022.31647        44.724
  24369794.11245 128064134.92045      3489.86745        39.211    24369795.61742
  99790229.77542      2719.37542        34.210
  22798865.80848 119808910.75148     -3163.41448        46.895    22798865.25644
  93357630.36344     -2465.00044        37.745
  20700782.55949 108783383.73749      -155.19149        48.312    20700781.50046
  84766290.72346      -120.93046        43.091
  23880462.56045 125492750.43345     -2843.84445        40.545    23880462.47941
  97786574.76641     -2215.98041        30.514
  21030230.21749 110514652.49649      -932.25449        48.626    21030229.55947
  86115321.70047      -726.43447        43.616
  22616709.18947 118851623.31747      1387.12547        44.379    22616711.22445
  92611674.89045      1080.87545        39.744
  22167255.40247 116489743.26347        91.95347        45.154    22167257.71545
  90771232.79745        71.64845        39.779
  22935606.48247 120527458.77447      3217.95747        44.947    22935608.45044
  93917519.90844      2507.49644        38.227
 17  8 21  1  5  0.0000000  0 10G 8G10G14G15G18G20G21G24G27G32
  24113214.31045 126715799.66045      2041.46145        40.139    24113217.26043
  98739606.61343      1590.74643        36.007
  21070608.98649 110726822.24649      1304.59449        49.441    21070611.74547
  86280662.84147      1016.56247        44.803
  24349883.99745 127959506.76945      3485.69545        39.086    24349885.60042
  99708701.48342      2716.12142        32.661
  22816947.30248 119903930.88848     -3171.27348        46.686    22816946.88244
  93431672.01144     -2471.12544        36.908
  20701686.55449 108788134.50949      -161.45749        48.287    20701685.48947
  84769992.62947      -125.81247        43.356
  23896702.08646 125578089.07746     -2845.45746        41.888    23896701.26842
  97853072.37942     -2217.24242        33.884
  21035591.00549 110542823.17749      -945.93449        48.743    21035590.24446
  86137272.86946      -737.09446        43.206
  22608837.49347 118810255.75947      1370.64847        44.111    22608839.52845
  92579440.43445      1068.03545        39.799
  22166786.93448 116487281.34048        72.11748        45.600    22166789.18246
  90769314.42546        56.19146        41.121
  22917260.52148 120431050.30948      3209.33648        45.842    22917262.16944
  93842396.45944      2500.77744        36.878
 17  8 21  1  5 30.0000000  0 10G 8G10G14G15G18G20G21G24G27G32
  24101603.35245 126654787.33545      2026.21545        39.684    24101607.59243
  98692064.65543      1578.87143        35.886
  21063182.68749 110687797.04049      1297.04749        49.419    21063185.27847
  86250253.59247      1010.68447        44.579
  24329998.84445 127855009.50445      3481.14145        39.700    24330000.25741
  99627275.13041      2712.57441        30.282
  22835072.90848 119999182.20448     -3178.89548        46.667    22835072.52444
  93505893.80044     -2477.06244        37.766
  20702626.34749 108793073.52249      -167.71549        48.275    20702625.30647
  84773841.20747      -130.69147        43.422
  23912953.03045 125663485.91245     -2847.53145        40.429    23912951.86742
  97919615.38542     -2218.85942        33.170
  21041029.77849 110571404.13349      -959.48449        48.558    21041028.85447
  86159543.72747      -747.65247        43.552
  22601060.55747 118769387.80647      1353.96547        44.322    22601062.72544
  92547595.31444      1055.03544        38.745
  22166431.84747 116485415.45747        52.20747        45.046    22166434.11246
  90767860.48846        40.67646        41.709
  22898963.71647 120334902.28347      3200.70347        44.940    22898966.06444
  93767475.99544      2494.05144        37.745
 17  8 21  1  6  0.0000000  0 10G 8G10G14G15G18G20G21G24G27G32
  24090081.33146 126594237.42646      2010.30946        41.870    24090084.82742
  98644882.91742      1566.47342        33.792
  21055798.86549 110648995.03149      1289.68849        49.419    21055801.32447
  86220018.25947      1004.94947        44.382
  24310139.19545 127750645.06145      3476.69945        40.592    24310140.43642
  99545952.28642      2709.11742        32.248
  22853242.18148 120094662.20648     -3186.38348        47.140    22853241.87744
  93580293.79444     -2482.89844        38.006
  20703601.86649 108798200.47949      -174.12949        48.303    20703601.19846
  84777836.24546      -135.68846        43.278
  23929213.51843 125748940.89243     -2849.15643        36.568    23929213.98644
  97986203.61244     -2220.12944        37.833
  21046546.68049 110600395.47249      -973.20349        48.620    21046545.66746
  86182134.37546      -758.34446        43.192
  22593378.98447 118729021.79347      1337.23047        43.961    22593381.16545
  92516141.32245      1041.99645        38.889
  22166190.28048 116484145.36448        32.38348        45.710    22166192.47345
  90766870.80845        25.23045        40.738
  22880717.30047 120239016.54047      3191.83647        44.784    22880719.59245
  93692759.85745      2487.14145        39.613
 17  8 21  1  6 30.0000000  0 10G 8G10G14G15G18G20G21G24G27G32
  24078647.87146 126534152.02546      1995.00046        41.979    24078650.72543
  98598063.11743      1554.54343        36.112
  21048457.50949 110610416.32049      1282.26249        49.416    21048459.79747
  86189956.92347       999.16047        44.518
  24290305.00844 127646415.26744      3471.66044        38.182    24290306.49241
  99464734.33941      2705.19141        29.591
  22871454.48048 120190368.25348     -3193.87948        47.000    22871454.29544
  93654869.92144     -2488.73844        37.842
  20704613.18549 108803515.11649      -180.35949        48.452    20704612.78546
  84781977.52046      -140.54346        43.275
  23945486.18245 125834453.06345     -2851.36345        40.677    23945486.18142
  98052836.48342     -2221.84442        33.777
  21052141.78549 110629797.40649      -986.89149        48.618    21052140.68447
  86205044.96947      -769.00847        43.689
  22585793.36147 118689159.39047      1320.33247        44.066    22585795.21045
  92485079.71445      1028.82845        39.870
  22166062.13748 116483470.74748        12.77348        46.310    22166064.18945
  90766345.13845         9.94945        41.012
  22862520.98948 120143394.79948      3183.01648        45.749    22862523.66845
  93618249.47945      2480.27045        39.955
 17  8 21  1  7  0.0000000  0 10G 8G10G14G15G18G20G21G24G27G32
  24067302.91045 126474532.77445      1979.36345        40.595    24067305.50444
  98551606.56944      1542.35944        36.871
  21041158.70649 110572061.01749      1274.83649        49.425    21041160.88447
  86160069.68247       993.37547        44.052
  24270496.22244 127542322.44544      3467.49644        37.822    24270498.30044
  99383623.14944      2701.94144        36.917
  22889709.38048 120286297.65848     -3201.23448        46.770    22889709.22844
  93729620.09144     -2494.47344        37.719
  20705660.24249 108809017.31949      -186.44149        48.274    20705659.91847
  84786264.95347      -145.28147        43.887
  23961769.72445 125920022.53545     -2853.15245        39.421    23961769.11742
  98119514.02642     -2223.23842        33.658
  21057815.03749 110659610.57249     -1000.41849        48.606    21057813.91746
  86228276.00746      -779.55146        43.316
  22578304.01747 118649803.44047      1303.53547        44.111    22578305.84044
  92454412.76444      1015.73844        37.782
  22166047.25548 116483391.40748        -7.25848        45.909    22166048.99845
  90766283.32745        -5.64145        40.893
  22844375.16547 120048038.89647      3174.06247        45.410    22844377.75145
  93543946.22145      2473.29345        38.889
 17  8 21  1  7 30.0000000  0 10G 8G10G14G15G18G20G21G24G27G32
  24056046.62145 126415381.96545      1964.02745        40.727    24056049.37644
  98505515.04944      1530.40644        36.692
  21033902.63649 110533929.28349      1267.35249        49.808    21033904.51347
  86130356.65147       987.54347        43.930
  24250714.25145 127438368.27545      3462.75045        38.982    24250716.42542
  99302619.95942      2698.24242        34.196
  22908006.09048 120382448.13248     -3208.61748        46.824    22908005.96843
  93804542.52243     -2500.22343        35.535
  20706743.03349 108814706.85249      -192.82849        48.692    20706742.66347
  84790698.35947      -150.25847        43.530
  23978063.67845 126005649.02845     -2855.17645        40.169    23978063.53341
  98186235.94441     -2224.81641        31.103
  21063566.48749 110689834.89949     -1014.16049        48.357    21063565.50947
  86251827.41747      -790.25847        43.766
  22570911.35047 118610955.52547      1286.46147        44.213    22570913.20044
  92424141.66644      1002.43444        38.350
  22166145.39948 116483906.99748       -27.36748        45.705    22166147.13345
  90766685.08545       -21.32845        40.800
  22826280.40648 119952950.56148      3165.10248        45.597    22826283.28544
  93469851.46044      2466.30944        38.853
 17  8 21  1  8  0.0000000  0 10G 8G10G14G15G18G20G21G24G27G32
  24044879.78145 126356701.09145      1947.96945        39.800    24044883.00044
  98459789.71244      1517.89544        38.348
  21026689.19649 110496021.18149      1259.87549        49.813    21026690.81847
  86100817.87847       981.71947        44.081
  24230958.96145 127334554.45745      3457.94145        38.949    24230961.06743
  99221726.21643      2694.50043        35.357
  22926344.33948 120478817.09348     -3215.95748        46.325    22926344.21444
  93879635.20344     -2505.94544        37.246
  20707861.49749 108820584.07049      -199.05949        48.417    20707860.98546
  84795278.01646      -155.11346        43.311
  23994368.42345 126091331.31945     -2857.14145        40.087    23994368.85943
  98253001.32943     -2226.34843        34.757
  21069396.45649 110720471.46249     -1028.15249        48.717    21069395.60447
  86275700.05847      -801.16047        43.391
  22563615.71546 118572617.91046      1269.34046        43.220    22563617.76745
  92394268.21745       989.09445        40.154
  22166356.63547 116485017.13547       -46.78947        45.205    22166358.32646
  90767550.12846       -36.46146        41.198
  22808236.99548 119858131.55448      3156.16048        45.921    22808239.58344
  93395966.56744      2459.34444        38.812
 17  8 21  1  8 30.0000000  0 10G 8G10G14G15G18G20G21G24G27G32
  24033803.07445 126298492.07445      1932.39545        41.048    24033806.78744
  98414432.04644      1505.75844        37.519
  21019518.10649 110458336.82949      1252.32849        49.849    21019519.62147
  86071453.45647       975.83647        43.832
  24211231.18746 127230882.75946      3453.12546        41.383    24211232.63142
  99140943.10742      2690.74242        34.264
  22944723.82548 120575401.92148     -3223.15648        46.455    22944723.93544
  93954896.10044     -2511.55544        38.192
  20709015.61849 108826648.80249      -205.39549        48.604    20709014.92546
  84800003.77846      -160.05146        43.315
  24010683.94646 126177069.39846     -2858.69546        41.153    24010684.60342
  98319810.16542     -2227.55942        32.975
  21075304.85349 110751519.38749     -1041.78949        48.811    21075304.15247
  86299893.23847      -811.78547        43.601
  22556417.67347 118534792.39447      1252.20747        43.942    22556419.95445
  92364793.83445       975.74645        39.834
  22166680.65447 116486721.50547       -66.65247        45.414    22166682.59245
  90768878.20945       -51.94145        40.722
  22790245.16748 119763583.66548      3146.77048        45.865    22790247.72145
  93322292.92845      2452.02345        38.916
 17  8 21  1  9  0.0000000  0 10G 8G10G14G15G18G20G21G24G27G32
  24022816.33145 126240757.12045      1916.30545        41.043    24022820.35944
  98369443.83844      1493.22344        37.395
  21012389.62949 110420876.32849      1244.96949        49.877    21012391.04147
  86042263.45547       970.10247        43.728
  24191530.48445 127127354.96345      3448.84045        38.969    24191531.57142
  99060272.18242      2687.41042        32.348
  22963143.74548 120672200.11448     -3230.17648        46.652    22963144.00844
  94030323.24144     -2517.02344        36.792
  20710205.32049 108832900.82849      -211.50449        48.449    20710204.51346
  84804875.48546      -164.81246        43.145
  24027010.19945 126262863.28045     -2860.42645        41.031    24027009.94242
  98386662.53942     -2228.90642        33.086
  21081291.42749 110782979.16649     -1055.56249        48.610    21081290.75347
  86324407.34747      -822.52047        43.675
  22549317.70847 118497481.58547      1235.28147        44.214    22549320.29645
  92335720.49145       962.55545        39.592
  22167117.86848 116489019.67748       -86.49248        45.779    22167119.91845
  90770668.98945       -67.39845        41.069
  22772305.44548 119669308.58848      3137.96948        45.899    22772307.68244
  93248831.86044      2445.16844        38.736
 17  8 21  1  9 30.0000000  0 10G 8G10G14G15G18G20G21G24G27G32
  24011920.48845 126183497.67745      1900.71945        40.661    24011924.19143
  98324826.08943      1481.07843        36.011
  21005303.75649 110383639.82149      1237.44949        49.646    21005305.27647
  86013248.00147       964.24247        44.299
  24171857.19345 127023973.41845      3443.32845        39.815    24171858.14541
  98979715.22441      2683.10941        28.734
  22981604.19048 120769209.33548     -3237.12948        46.950    22981604.20744
  94105914.82644     -2522.44144        37.690
  20711430.64449 108839340.00949      -217.77749        48.499    20711429.70646
  84809893.02946      -169.69946        42.937
  24043346.74645 126348712.54945     -2862.50045        40.768    24043346.22741
  98453558.08041     -2230.52341        31.632
  21087356.47849 110814851.30949     -1069.30149        48.712    21087355.66646
  86349242.76646      -833.22346        43.112
  22542316.04847 118460687.35347      1217.74647        44.180    22542318.76945
  92307049.68445       948.89145        40.722
  22167668.12448 116491911.27748      -106.37948        45.836    22167670.22845
  90772922.19145       -82.89545        40.412
  22754417.84348 119575308.09448      3128.82048        46.346    22754420.32744
  93175584.76444      2438.03944        38.184
 17  8 21  1 10  0.0000000  0 10G 8G10G14G15G18G20G21G24G27G32
  24001114.57645 126126715.29445      1884.52045        39.133    24001118.07344
  98280580.09544      1468.45744        36.801
  20998260.58349 110346627.40449      1230.06249        50.049    20998262.22347
  85984407.16347       958.48847        44.337
  24152212.26844 126920739.61544      3438.43444        37.418    24152213.44143
  98899273.38143      2679.30143        35.720
  23000104.25448 120866426.77048     -3244.00848        46.597    23000104.20444
  94181668.66944     -2527.80144        38.088
  20712691.64749 108845966.57449      -223.96949        48.374    20712690.55047
  84815056.59447      -174.52347        43.336
  24059693.84045 126434616.42245     -2864.33245        40.197    24059693.71542
  98520496.13142     -2231.94942        33.793
  21093500.04049 110847135.76449     -1083.02049        48.809    21093498.99346
  86374399.47546      -843.91446        42.988
  22535413.07447 118424411.03947      1200.44547        44.072    22535415.47945
  92278782.43245       935.41045        39.188
  22168331.33848 116495395.84048      -126.09848        46.274    22168333.48545
  90775637.42245       -98.26245        40.005
  22736582.68948 119481583.93448      3119.47348        46.284    22736585.19044
  93102552.99244      2430.75444        38.757
 17  8 21  1 10 30.0000000  0 10G 8G10G14G15G18G20G21G24G27G32
  23990400.15745 126070412.19845      1868.95745        40.093    23990403.94542
  98236707.60642      1456.33242        33.021
  20991260.20249 110309839.24749      1222.55549        50.285    20991261.86547
  85955741.07647       952.63747        44.295
  24132595.77145 126817655.53745      3433.58245        39.459    24132597.14541
  98818948.25041      2675.51641        29.529
  23018643.37448 120963850.19748     -3250.85248        46.882    23018643.44744
  94257582.99944     -2533.13344        37.619
  20713988.24349 108852780.24249      -230.26649        48.457    20713986.97946
  84820365.93146      -179.43046        43.109
  24076051.27645 126520574.96145     -2866.07845        40.704    24076051.40542
  98587476.76142     -2233.31242        33.363
  21099722.09649 110879832.87249     -1096.90649        48.779    21099720.95346
  86399877.73446      -854.73446        43.230
  22528608.92647 118388654.79947      1183.07847        44.094    22528610.82044
  92250920.43644       921.87544        38.119
  22169107.36848 116499472.85448      -145.93848        46.595    22169109.12845
  90778814.34945      -113.72345        39.660
  22718800.56448 119388137.80148      3110.15248        45.990    22718802.81945
  93029737.84445      2423.49245        38.932
 17  8 21  1 11  0.0000000  0 10G 8G10G14G15G18G20G21G24G27G32
  23979777.52645 126014590.00945      1852.82045        41.109    23979781.15541
  98193209.80241      1443.75441        31.782
  20984302.42349 110273275.42149      1215.10949        49.957    20984304.24547
  85927249.79547       946.83647        44.700
  24113008.63945 126714723.11045      3428.34045        41.010    24113009.56742
  98738741.21842      2671.43042        32.576
  23037221.05248 121061477.03048     -3257.66048        46.118    23037221.17344
  94333655.83344     -2538.44144        37.026
  20715320.43649 108859780.87649      -236.43849        48.364    20715319.06346
  84825820.97746      -184.23846        43.052
  24092418.63645 126606587.42945     -2868.03145        41.002    24092417.99242
  98654499.46442     -2234.83242        32.252
  21106022.70049 110912942.90149     -1110.49649        48.659    21106021.62146
  86425677.74146      -865.32446        42.952
  22521903.89247 118353420.45047      1165.73047        44.796    22521905.90345
  92223465.13345       908.35945        39.211
  22169995.99247 116504141.86347      -165.39147        45.355    22169997.67546
  90782452.54746      -128.89846        41.778
  22701071.42648 119294971.35948      3100.78548        45.895    22701073.89244
  92957140.66644      2416.19144        38.830
 17  8 21  1 11 30.0000000  0 10G 8G10G14G15G18G20G21G24G27G32
  23969247.30646 125959250.61846      1836.62946        41.909    23969250.47342
  98150088.19342      1431.13742        34.099
  20977387.17949 110236936.06449      1207.55549        49.811    20977389.14447
  85898933.42947       940.94947        44.596
  24093450.85046 126611944.24446      3423.35946        41.942    24093451.14542
  98658653.85142      2667.55542        33.979
  23055836.83648 121159304.66348     -3264.15648        46.340    23055837.09643
  94409885.13943     -2543.50043        36.236
  20716688.19649 108866968.53949      -242.80549        48.747    20716686.78046
  84831421.74746      -189.20346        42.592
  24108796.76346 126692653.39346     -2869.93046        41.280    24108795.47542
  98721563.84242     -2236.31242        33.543
  21112401.90549 110946466.01149     -1124.32849        48.571    21112400.76246
  86451799.63846      -876.10246        42.931
  22515298.93647 118318710.83347      1148.26247        44.279    22515301.17745
  92196418.68345       894.74645        40.512
  22170996.99448 116509402.37348      -185.21948        45.753    22170998.71345
  90786551.63145      -144.32845        40.718
  22683395.86248 119202086.38148      3091.48048        45.886    22683398.37544
  92884762.78344      2408.94144        38.666
 17  8 21  1 12  0.0000000  0 10G 8G10G14G15G18G20G21G24G27G32
  23958808.97146 125904395.64646      1820.41046        42.479    23958811.57243
  98107344.07543      1418.50043        36.069
  20970514.64549 110200821.31449      1200.09049        50.004    20970516.59947
  85870792.07147       935.13347        44.363
  24073922.63446 126509320.81846      3418.03546        41.188    24073922.82741
  98578687.61941      2663.40641        31.056
  23074490.50348 121257330.59948     -3270.86748        46.177    23074490.83043
  94486268.96243     -2548.73043        36.443
  20718091.51449 108874342.94449      -248.89149        48.164    20718090.10046
  84837168.04246      -193.94546        43.236
  24125184.62645 126778772.42745     -2871.48445        40.426    24125183.50842
  98788669.56842     -2237.52342        33.815
  21118859.67349 110980401.99449     -1138.09849        48.492    21118858.55946
  86478243.25446      -886.83246        43.123
  22508793.97947 118284526.90247      1130.50447        44.768    22508796.25645
  92169781.88545       880.91045        40.191
  22172110.46448 116515253.77348      -204.86748        46.146    22172112.33545
  90791111.16745      -159.64145        40.431
  22665774.27948 119109484.57848      3082.00848        46.107    22665776.95745
  92812605.56645      2401.56245        39.655
 17  8 21  1 12 30.0000000  0 10G 8G10G14G15G18G20G21G24G27G32
  23948462.98745 125850026.66845      1804.21545        39.966    23948466.16443
  98064978.67943      1405.87943        36.119
  20963685.01149 110164931.29049      1192.70749        49.986    20963686.83947
  85842825.81747       929.37947        44.404
  24054424.01545 126406854.50945      3412.87145        39.992    24054424.20142
  98498843.79842      2659.37542        32.319
  23093181.51848 121355552.59848     -3277.34448        45.986    23093182.12844
  94562805.55144     -2553.77744        37.025
  20719530.34549 108881904.28349      -255.24649        48.351    20719528.85846
  84843059.99346      -198.89546        43.018
  24141582.66445 126864944.59445     -2873.41845        39.326    24141582.17742
  98855816.67942     -2239.03542        33.380
  21125396.09549 111014751.46649     -1151.95749        48.632    21125394.91046
  86505009.07246      -897.63346        42.928
  22502389.62247 118250871.25047      1113.00047        44.154    22502391.81545
  92143556.72445       867.27045        41.047
  22173336.36348 116521695.52048      -224.59448        45.960    22173338.01445
  90796130.72145      -175.01245        40.537
  22648206.90348 119017167.60148      3072.55948        46.328    22648209.69344
  92740670.28944      2394.19944        38.713
 17  8 21  1 13  0.0000000  0 10G 8G10G14G15G18G20G21G24G27G32
  23938209.46946 125796145.45446      1787.77346        41.506    23938212.82343
  98022993.33843      1393.06643        36.050
  20956898.08649 110129266.12449      1184.99649        49.674    20956899.99647
  85815034.78447       923.37147        44.644
  24034954.82144 126304546.75944      3407.87944        37.634    24034955.62442
  98419123.57842      2655.48842        32.277
  23111909.52448 121453968.11548     -3283.73448        46.573    23111909.64143
  94639492.96643     -2558.75843        35.224
  20721004.74649 108889652.32849      -261.34449        48.646    20721003.23746
  84849097.43946      -203.64846        42.939
  24157990.57445 126951169.29145     -2874.82845        40.964    24157990.25641
  98923004.72141     -2240.12941        30.229
  21132011.28949 111049514.33049     -1165.71549        48.703    21132010.02546
  86532097.01246      -908.35246        42.853
  22496085.84247 118217745.58147      1095.42647        43.892    22496087.77245
  92117744.52945       853.57445        39.746
  22174674.33848 116528727.04748      -244.23848        45.909    22174676.15245
  90801609.82845      -190.31245        40.982
  22630694.10048 118925137.15448      3062.94548        46.456    22630696.92445
  92668958.29645      2386.70745        39.630
 17  8 21  1 13 30.0000000  0 10G 8G10G14G15G18G20G21G24G27G32
  23928049.32046 125742753.81446      1771.55146        41.163    23928052.76443
  97981389.50343      1380.43043        35.764
  20950154.10549 110093825.95949      1177.60249        50.005    20950155.97447
  85787419.08347       917.60947        44.750
  24015516.39644 126202399.99844      3402.05144        38.595    24015517.99441
  98339528.84141      2650.94941        29.868
  23130673.72748 121552574.40248     -3290.08248        46.224    23130673.54843
  94716329.02043     -2563.70343        36.055
  20722514.79349 108897587.27249      -267.59049        48.615    20722513.18446
  84855280.50646      -208.51646        43.083
  24174408.87745 127037446.22045     -2876.70345        39.865    24174407.86441
  98990233.49641     -2241.59041        30.792
  21138705.08149 111084690.46649     -1179.33249        48.329    21138703.65846
  86559506.98546      -918.96546        43.191
  22489883.05647 118185151.02247      1077.64847        44.099    22489884.98745
  92092346.19245       839.72345        39.529
  22176124.31348 116536347.66248      -263.89848        45.786    22176126.23645
  90807547.96645      -205.63745        39.799
  22613236.22648 118833394.90548      3053.36748        46.140    22613238.66345
  92597470.84545      2379.24245        39.936
 17  8 21  1 14  0.0000000  0 10G 8G10G14G15G18G20G21G24G27G32
  23917982.84446 125689852.98446      1754.96546        42.059    23917985.59042
  97940168.03842      1367.50042        33.843
  20943452.80849 110058610.93349      1170.08249        49.761    20943454.72147
  85759978.80947       911.75047        44.697
  23996109.28845 126100415.95845      3396.71145        39.749    23996111.00242
  98260060.82042      2646.78542        34.123
  23149473.85148 121651369.20048     -3296.29348        45.946    23149473.86544
  94793311.96644     -2568.54344        36.816
  20724060.37949 108905708.92549      -273.86749        48.567    20724058.58646
  84861609.06546      -213.40646        42.648
  24190836.62245 127123774.95845     -2878.53145        40.341    24190835.42642
  99057502.64642     -2243.01642        33.953
  21145477.47549 111120280.17449     -1193.18049        48.300    21145476.29746
  86587239.21546      -929.75446        42.673
  22483781.99047 118153090.27647      1059.91047        44.342    22483784.03245
  92067363.81445       825.90245        40.149
  22177686.54448 116544556.75748      -283.51248        46.322    22177688.39045
  90813944.66945      -220.89845        40.538
  22595833.31948 118741942.51748      3043.64548        46.165    22595835.76245
  92526209.28445      2371.66845        39.189
 17  8 21  1 14 30.0000000  0 10G 8G10G14G15G18G20G21G24G27G32
  23908010.15346 125637445.28346      1738.85946        41.571    23908012.55943
  97899330.85243      1354.94943        35.470
  20936794.24449 110023621.15949      1162.56249        49.816    20936796.52347
  85732714.05747       905.89147        44.808
  23976733.83245 125998596.36545      3391.34045        40.695    23976735.39841
  98180720.89441      2642.59841        32.069
  23168309.43548 121750350.21348     -3302.50448        46.363    23168309.40744
  94870440.01844     -2573.38344        36.718
  20725641.40749 108914017.67249      -280.05949        48.470    20725639.73046
  84868083.42046      -218.23046        42.389
  24207274.17645 127210155.25745     -2879.75045        39.331    24207273.50342
  99124811.92242     -2243.96942        33.732
  21152328.68149 111156283.65149     -1207.02349        48.628    21152327.74246
  86615293.85046      -940.53946        42.261
  22477783.03447 118121564.98347      1041.77347        44.548    22477785.00145
  92042798.65445       811.77045        39.812
  22179360.72948 116553353.64548      -303.26648        46.178    22179362.54445
  90820799.38445      -236.25445        40.376
  22578485.96248 118650781.65248      3033.96548        46.184    22578488.23445
  92455174.87545      2364.12545        39.182
 17  8 21  1 15  0.0000000  0 10G 8G10G14G15G18G20G21G24G27G32
  23898131.39246 125585531.90346      1722.49246        41.491    23898133.90043
  97858878.90543      1342.19943        35.233
  20930178.67449 109988856.83149      1154.96549        49.726    20930181.20047
  85705624.96947       899.96947        44.594
  23957389.91945 125896943.11745      3385.80545        39.684    23957391.51541
  98101510.62841      2638.28541        31.302
  23187180.04448 121849514.77248     -3308.60948        46.372    23187179.93843
  94947711.06143     -2578.14143        35.483
  20727257.83049 108922512.72649      -286.34849        48.345    20727256.27346
  84874702.94546      -223.13346        42.931
  24223721.65145 127296586.49145     -2882.09845        40.356    24223720.63541
  99192160.90941     -2245.79341        29.517
  21159258.75949 111192701.11049     -1220.87549        48.465    21159257.70646
  86643671.08446      -951.33646        42.737
  22471886.15547 118090576.29247      1024.21547        44.543    22471888.28945
  92018651.65545       798.08645        39.432
  22181146.53248 116562737.59648      -322.64548        45.887    22181148.33445
  90828111.56245      -251.41445        41.017
  22561194.28748 118559913.97548      3024.11348        46.470    22561196.71044
  92384368.93544      2356.44944        38.600
 17  8 21  1 15 30.0000000  0 10G 8G10G14G15G18G20G21G24G27G32
  23888346.41445 125534114.57445      1705.83645        40.434    23888349.57944
  97818813.46844      1329.21944        36.874
  20923606.09349 109954318.02749      1147.59049        49.597    20923608.76747
  85678711.62547       894.22347        45.046
  23938077.78145 125795457.94845      3380.11745        40.394    23938079.27241
  98022431.32741      2633.85541        31.592
  23206084.73448 121948860.46648     -3314.51648        45.743    23206084.75643
  95025123.28143     -2582.74243        36.001
  20728909.79949 108931194.40149      -292.46949        48.432    20728908.27446
  84881467.88646      -227.90246        42.779
  24240178.62245 127383068.45945     -2883.69945        39.931    24240177.46441
  99259549.50841     -2247.04341        32.126
  21166267.47749 111229532.30649     -1234.60549        48.311    21166266.46646
  86672370.70346      -962.03546        42.981
  22466091.83947 118060126.64147      1006.03947        44.295    22466093.83044
  91994924.68144       783.92244        38.806
  22183043.76848 116572707.91648      -341.94148        46.131    22183045.60445
  90835880.63345      -266.44945        40.179
  22543958.96248 118469341.14348      3014.10248        46.581    22543961.24844
  92313792.73644      2348.64844        38.842
 17  8 21  1 16  0.0000000  0 10G 8G10G14G15G18G20G21G24G27G32
  23878656.64546 125483195.08546      1689.10546        41.399    23878660.06043
  97779135.99743      1316.18443        35.283
  20917076.48749 109920004.95449      1139.93049        49.849    20917079.03847
  85651974.17347       888.25447        44.075
  23918798.01045 125694142.59545      3374.39145        39.558    23918800.17942
  97943484.34542      2629.39142        33.746
  23225023.50248 122048384.89148     -3320.45748        45.651    23225023.51844
  95102674.75844     -2587.37144        37.132
  20730597.44949 108940062.88549      -298.76649        48.455    20730596.02446
  84888378.39346      -232.80946        42.729
  24256645.12345 127469600.79645     -2885.24645        40.251    24256644.11341
  99326977.23041     -2248.25041        31.599
  21173354.93749 111266776.99449     -1248.33249        48.278    21173353.84246
  86701392.52846      -972.73046        43.152
  22460400.21547 118030217.66447       987.80147        43.691    22460402.14245
  91971619.00145       769.71145        40.016
  22185052.35748 116583263.86548      -361.62948        45.827    22185054.09745
  90844106.05245      -281.79345        40.418
  22526780.09748 118379064.75848      3004.27348        46.973    22526782.19245
  92243447.53645      2340.98845        39.201
 17  8 21  1 16 30.0000000  0 10G 8G10G14G15G18G20G21G24G27G32
  23869062.11046 125432774.79846      1672.07846        41.514    23869065.50743
  97739847.45643      1302.91443        35.959
  20910589.88849 109885917.73049      1132.50849        49.976    20910592.24947
  85625412.70847       882.46947        44.544
  23899550.99146 125592999.00246      3368.51246        41.303    23899553.29142
  97864671.25842      2624.81642        32.321
  23243995.86948 122148085.46748     -3326.22748        46.243    23243996.02843
  95180363.49243     -2591.86743        36.634
  20732320.59049 108949117.97749      -304.93849        48.424    20732319.17446
  84895434.31046      -237.61746        42.942
  24273121.42345 127556183.29945     -2887.02745        41.012    24273119.59042
  99394444.11842     -2249.63742        33.766
  21180521.09549 111304435.34649     -1262.13749        48.367    21180520.22146
  86730736.68446      -983.48846        43.234
  22454811.56847 118000850.66847       969.85247        44.018    22454813.54845
  91948735.65945       755.72745        39.320
  22187172.14948 116594404.62948      -381.16448        45.635    22187173.81045
  90852787.15745      -297.01645        40.826
  22509657.92448 118289086.44148      2994.35248        47.019    22509659.74745
  92173334.58245      2333.25845        39.313
 17  8 21  1 17  0.0000000  0 10G 8G10G14G15G18G20G21G24G27G32
  23859563.15146 125382855.20046      1655.60546        41.132    23859566.42643
  97700949.08743      1290.07843        35.010
  20904146.42349 109852056.53549      1124.91449        49.955    20904148.70247
  85599027.36047       876.55547        44.786
  23880337.21246 125492028.62246      3362.79346        41.702    23880339.33842
  97785993.11142      2620.35942        33.688
  23263001.37048 122247959.95248     -3332.07848        46.546    23263001.56443
  95258187.75443     -2596.42643        35.765
  20734079.10349 108958359.36749      -311.22749        48.382    20734077.70746
  84902635.39746      -242.51646        43.072
  24289607.39945 127642815.53645     -2888.47345        40.292    24289605.29442
  99461949.78342     -2250.76242        33.546
  21187765.95549 111342507.42949     -1275.95749        48.300    21187765.27347
  86760403.22047      -994.25447        43.362
  22449326.64247 117972027.79547       951.74247        44.197    22449328.78545
  91926276.27445       741.61345        39.812
  22189403.36548 116606129.42148      -400.65248        46.120    22189405.16945
  90861923.35545      -312.19945        40.680
  22492592.72048 118199407.84348      2984.11348        46.698    22492594.19845
  92103455.17045      2325.28145        39.697
 17  8 21  1 17 30.0000000  0 10G 8G10G14G15G18G20G21G24G27G32
  23850159.24946 125333437.88446      1638.81246        41.113    23850162.65843
  97662442.11543      1276.99243        34.757
  20897745.74949 109818421.46349      1117.18449        49.697    20897748.34647
  85572818.23347       870.53147        44.723
  23861156.82346 125391233.69346      3356.81646        41.498    23861158.48142
  97707451.64842      2615.69942        33.994
  23282039.49448 122348005.98548     -3337.71148        46.223    23282039.83643
  95336145.67543     -2600.81643        36.659
  20735873.07749 108967787.31049      -317.37949        48.293    20735871.81846
  84909981.84646      -247.31246        43.179
  24306102.05745 127729497.35445     -2890.23045        39.038    24306100.37942
  99529494.03942     -2252.12942        32.856
  21195089.77649 111380993.91749     -1289.89549        48.417    21195089.06946
  86790392.68446     -1005.11746        42.446
  22443945.85247 117943750.57547       933.40247        44.790    22443947.74045
  91904242.10645       727.32445        39.405
  22191745.62048 116618437.41248      -419.98848        45.726    22191747.26245
  90871513.99545      -327.31645        40.641
  22475584.60248 118110030.53148      2974.13748        46.631    22475586.53845
  92033810.55045      2317.50845        39.745
 17  8 21  1 18  0.0000000  0 10G 8G10G14G15G18G20G21G24G27G32
  23840851.60446 125284524.46046      1622.16846        41.414    23840854.73644
  97624327.75444      1264.02344        36.723
  20891388.32649 109785012.71149      1109.82849        49.848    20891390.97447
  85546785.44947       864.79747        44.887
  23842009.87845 125290615.95645      3350.80945        40.027    23842011.09142
  97629048.23442      2611.01242        33.835
  23301109.75748 122448221.15048     -3343.21948        45.775    23301110.18943
  95414235.39043     -2605.10943        36.078
  20737702.58349 108977401.77549      -323.57849        48.363    20737701.44546
  84917473.63046      -252.14146        42.681
  24322606.13145 127816228.03345     -2891.97345        40.284    24322605.20142
  99597076.36042     -2253.48442        33.963
  21202492.27249 111419893.92649     -1303.61749        48.695    21202491.26146
  86820704.38146     -1015.80946        42.211
  22438669.31647 117916020.91147       915.41447        44.078    22438671.19345
  91882634.60045       713.30545        40.093
  22194198.70448 116631327.72548      -439.46148        46.271    22194200.53945
  90881558.37445      -342.44145        40.343
  22458634.03048 118020956.12648      2964.07048        46.635    22458636.59045
  91964401.96445      2309.66045        40.133
 17  8 21  1 18 30.0000000  0 10G 8G10G14G15G18G20G21G24G27G32
  23831639.81146 125236116.44046      1605.00046        42.545    23831643.29544
  97586607.25544      1250.64544        36.813
  20885073.99049 109751830.43649      1102.21149        49.794    20885076.66047
  85520929.14047       858.86347        45.224
  23822896.45244 125190177.23444      3344.98044        38.857    23822897.83341
  97550784.44441      2606.48441        31.678
  23320211.81948 122548603.10048     -3348.76248        45.651    23320212.24944
  95492455.08644     -2609.43044        36.871
  20739567.79549 108987203.37749      -329.78149        48.398    20739566.68446
  84925111.24046      -256.97746        42.678
  24339120.10545 127903007.38345     -2893.63345        40.325    24339118.77041
  99664696.62741     -2254.78141        30.805
  21209973.42649 111459207.71949     -1317.36749        48.334    21209972.47846
  86851338.49146     -1026.52346        42.666
  22433497.02747 117888840.00447       896.71147        44.523    22433499.10445
  91861454.67245       698.73445        40.602
  22196762.39048 116644799.48848      -458.66848        46.257    22196763.87745
  90892055.85345      -357.40645        40.604
  22441741.42848 117932186.20348      2953.83648        46.627    22441744.30345
  91895230.64145      2301.68845        40.003
 17  8 21  1 19  0.0000000  0 10G 8G10G14G15G18G20G21G24G27G32
  23822524.53846 125188215.44046      1588.25446        42.784    23822527.46943
  97549281.80743      1237.59843        34.857
  20878802.86349 109718874.80049      1094.82849        49.913    20878805.30347
  85495249.41647       853.10947        45.013
  23803817.71745 125089919.07045      3338.87145        39.673    23803818.67243
  97472661.19243      2601.71543        35.053
  23339345.19648 122649149.11748     -3354.20748        46.234    23339345.58443
  95570802.60443     -2613.67243        36.214
  20741468.59249 108997191.35549      -336.06649        48.382    20741467.46146
  84932894.08146      -261.87546        42.990
  24355642.81545 127989834.70045     -2895.21145        39.965    24355641.20142
  99732354.27742     -2256.01242        33.594
  21217533.38249 111498935.28949     -1331.08249        48.618    21217532.61246
  86882295.03046     -1037.21146        42.937
  22428429.33847 117862209.51747       878.56247        44.139    22428431.46545
  91840703.67445       684.59045        41.065
  22199436.50748 116658851.81248      -477.99648        46.049    22199437.87946
  90903005.70646      -372.46946        41.536
  22424907.37448 117843722.34748      2943.66448        46.956    22424910.25245
  91826297.79445      2293.76245        39.193
 17  8 21  1 19 30.0000000  0 10G 8G10G14G15G18G20G21G24G27G32
  23813505.85046 125140822.44346      1571.35246        42.384    23813508.69343
  97512352.20643      1224.42643        35.784
  20872574.77949 109686145.97049      1087.23449        49.642    20872577.10147
  85469746.42647       847.19147        44.976
  23784774.27846 124989843.31646      3332.77046        42.812    23784775.02941
  97394680.16941      2596.96141        32.187
  23358509.55848 122749857.23948     -3359.61748        46.264    23358510.02344
  95649276.44844     -2617.88744        37.725
  20743404.75949 109007365.79649      -342.24249        48.213    20743403.81246
  84940822.21646      -266.68446        42.869
  24372174.26844 128076710.42444     -2896.94544        38.002    24372172.95141
  99800049.62041     -2257.36741        31.570
  21225172.22549 111539076.98249     -1345.09849        48.808    21225171.29846
  86913574.26746     -1048.13346        42.314
  22423466.64847 117836131.32347       860.28947        43.865    22423468.91145
  91820383.00745       670.35245        39.879
  22202220.85248 116673483.75448      -497.43448        46.089    22202222.23145
  90914407.21345      -387.61345        40.877
  22408131.76548 117755566.13848      2933.37148        46.800    22408134.79245
  91757604.68645      2285.74245        40.347
 17  8 21  1 20  0.0000000  0 10G 8G10G14G15G18G20G21G24G27G32
  23804584.21046 125093939.23546      1554.22746        41.984    23804586.88844
  97475819.83944      1211.08244        37.020
  20866389.88749 109653644.09649      1079.62549        50.110    20866392.14247
  85444420.30547       841.26247        44.385
  23765766.03146 124889952.00546      3326.56246        42.223    23765766.88343
  97316842.81443      2592.12543        36.099
  23377704.10648 122850724.70548     -3364.91048        46.267    23377704.78344
  95727874.45444     -2622.01244        37.684
  20745376.46749 109017726.91449      -348.41449        48.418    20745375.52546
  84948895.81746      -271.49646        43.279
  24388714.77745 128163633.47645     -2898.45345        39.246    24388714.36441
  99867781.84241     -2258.54341        31.418
  21232889.60549 111579631.83549     -1358.82449        48.499    21232888.78946
  86945175.43146     -1058.82846        42.953
  22418609.41547 117810606.49847       841.73447        44.512    22418611.80845
  91800493.55445       655.89545        39.458
  22205115.30548 116688694.34148      -516.76248        46.309    22205116.82345
  90926259.60345      -402.67645        40.987
  22391415.04148 117667719.13748      2923.10548        46.468    22391418.13145
  91689152.51745      2277.74245        39.841
 17  8 21  1 20 30.0000000  0 10G 8G10G14G15G18G20G21G24G27G32
  23795759.94546 125047567.39246      1537.28946        41.908    23795762.56443
  97439685.95343      1197.88343        35.915
  20860248.44749 109621369.36949      1072.05149        50.210    20860250.32147
  85419271.16347       835.35947        44.740
  23746792.82246 124790246.54846      3320.36346        41.666    23746793.59643
  97239150.35443      2587.29743        35.983
  23396928.38048 122951749.21648     -3369.82048        46.218    23396928.96444
  95806594.83744     -2625.83644        36.697
  20747383.69249 109028274.48349      -354.72749        48.650    20747382.66146
  84957114.70246      -276.41446        43.234
  24405264.94544 128250603.79344     -2899.65244        37.434    24405263.93442
  99935550.94342     -2259.47342        32.498
  21240685.57049 111620600.07649     -1372.57449        48.794    21240684.88346
  86977098.72046     -1069.54346        42.585
  22413857.85647 117785636.64247       823.23447        44.506    22413860.29145
  91781036.54345       641.47745        39.829
  22208119.69647 116704482.62147      -536.05947        45.430    22208121.33446
  90938562.15146      -417.71146        41.390
  22374757.43948 117580182.94048      2912.69148        46.561    22374760.37545
  91620942.50745      2269.62545        40.513
 17  8 21  1 21  0.0000000  0 10G 8G10G14G15G18G20G21G24G27G32
  23787033.19446 125001708.23846      1520.01246        42.275    23787036.29144
  97403951.52244      1184.42244        36.808
  20854150.11249 109589321.95049      1064.41049        50.165    20854151.97747
  85394299.16647       829.40647        44.795
  23727854.98845 124690728.88545      3314.01645        40.230    23727855.66142
  97161604.18442      2582.35242        32.732
  23416182.09647 123052928.55747     -3375.18047        45.485    23416182.75943
  95885435.86343     -2630.01243        35.204
  20749426.38249 109039008.76749      -360.96549        48.472    20749425.46846
  84965479.08246      -281.27346        42.863
  24421823.31145 128337621.20545     -2901.25845        39.227    24421823.40041
 100003356.63141     -2260.72741        29.219
  21248560.16549 111661981.64949     -1386.30549        48.295    21248559.37946
  87009344.09746     -1080.24246        42.868
  22409212.33347 117761223.56847       804.36747        44.747    22409214.73745
  91762013.38145       626.77745        40.157
  22211233.88048 116720847.56848      -555.26648        46.394    22211235.87846
  90951314.04646      -432.67646        41.803
  22358159.21248 117492958.98148      2902.32048        46.607    22358161.91845
  91552975.82445      2261.54745        39.792
 17  8 21  1 21 30.0000000  0 10G 8G10G14G15G18G20G21G24G27G32
  23778404.13246 124956362.87046      1502.80946        41.740    23778407.26044
  97368617.48044      1171.01644        36.950
  20848095.09349 109557502.03049      1056.77749        50.146    20848096.72147
  85369504.42247       823.46147        44.599
  23708952.76445 124591400.43045      3307.73045        39.634    23708953.89143
  97084205.48243      2577.45343        34.858
  23435464.89847 123154260.24147     -3380.12547        44.922    23435465.01442
  95964395.62842     -2633.86742        34.146
  20751504.45849 109049929.59449      -367.25049        48.614    20751503.73646
  84973988.81846      -286.17246        43.122
  24438391.56045 128424685.02845     -2902.87945        39.467    24438391.00641
 100071198.59741     -2261.98841        28.124
  21256513.33949 111703776.43149     -1400.10249        48.408    21256512.57646
  87041911.45246     -1090.99246        42.333
  22404672.92947 117737368.65647       785.85247        44.335    22404674.96745
  91743425.14945       612.34845        39.886
  22214457.41348 116737788.11848      -574.14548        45.584    22214459.54545
  90964514.47445      -447.38745        40.875
  22341620.73648 117406048.88148      2891.77348        47.152    22341623.20945
  91485253.69645      2253.32845        39.635
 17  8 21  1 22  0.0000000  0 10G 8G10G14G15G18G20G21G24G27G32
  23769873.08845 124911532.93345      1485.68445        41.098    23769876.87443
  97333685.07743      1157.67243        36.218
  20842083.24649 109525909.74849      1049.16449        49.998    20842084.80147
  85344887.06247       817.52747        44.629
  23690087.25845 124492263.22445      3301.57845        40.586    23690088.26841
  97006955.76941      2572.65641        31.195
  23454776.08847 123255742.18147     -3385.30147        45.295    23454776.11843
  96043472.44343     -2637.89843        34.988
  20753618.09249 109061037.22249      -373.35549        48.307    20753617.56947
  84982644.11947      -290.93047        43.588
  24454968.10244 128511795.30944     -2904.70744        38.619    24454966.89041
 100139076.74741     -2263.41041        27.901
  21264545.18949 111745984.22549     -1413.85549        48.459    21264544.63846
  87074800.63346     -1101.70746        42.861
  22400239.75547 117714073.23447       767.11747        44.126    22400242.01145
  91725272.89145       597.75045        39.959
  22217790.16548 116755303.28648      -593.44948        45.681    22217792.52645
  90978162.64445      -462.43045        40.541
  22325142.52048 117319454.15348      2881.19948        47.210    22325145.09745
  91417777.33145      2245.08645        40.557
 17  8 21  1 22 30.0000000  0 10G 8G10G14G15G18G20G21G24G27G32
  23761440.21945 124867219.56045      1468.48845        40.551    23761443.85744
  97299155.17844      1144.27344        37.669
  20836114.62449 109494545.30249      1041.66849        49.936    20836116.10647
  85320447.24147       811.68847        44.443
  23671259.09046 124393318.84646      3294.78546        42.372    23671259.44542
  96929856.31042      2567.36342        32.366
  23474115.51847 123357371.74447     -3389.96947        45.275    23474115.65642
  96122664.28642     -2641.53942        34.101
  20755767.23449 109072331.27949      -379.59049        48.596    20755766.89346
  84991444.68546      -295.78946        43.025
  24471553.21944 128598951.66244     -2905.97744        38.141    24471552.98643
 100206990.74243     -2264.40243        35.528
  21272655.56849 111788604.95049     -1427.51249        48.220    21272655.28046
  87108011.57446     -1112.35246        42.110
  22395913.44247 117691338.87947       748.56647        44.418    22395915.96645
  91707557.83745       583.29745        39.882
  22221232.27348 116773391.94548      -612.50448        46.105    22221234.47545
  90992257.68845      -477.27745        40.206
  22308724.55048 117233176.31548      2870.66448        47.420    22308726.92645
  91350547.86145      2236.87945        39.899
 17  8 21  1 23  0.0000000  0 10G 8G10G14G15G18G20G21G24G27G32
  23753106.25045 124823424.51245      1450.92245        40.698    23753110.43843
  97265029.21043      1130.58643        35.706
  20830189.37449 109463408.87349      1034.02349        49.980    20830191.03247
  85296185.09847       805.73047        44.222
  23652468.22246 124294569.28346      3288.41446        42.945    23652467.88241
  96852908.61641      2562.39841        32.160
  23493482.62247 123459146.80347     -3394.78147        45.103    23493482.66443
  96201969.50643     -2645.28943        36.569
  20757952.03349 109083812.21349      -385.80949        48.468    20757951.59046
  85000390.86346      -300.63346        43.033
  24488147.19545 128686153.61345     -2907.43445        39.895    24488147.35941
 100274940.27541     -2265.53541        32.188
  21280844.53949 111831638.54549     -1441.37949        48.338    21280844.13646
  87141544.22346     -1123.15646        42.634
  22391693.97147 117669166.85947       729.55547        43.979    22391697.04245
  91690280.94645       568.48045        40.702
  22224783.61748 116792052.97948      -631.64848        46.204    22224785.46445
  91006798.75245      -492.19545        40.677
  22292367.19648 117147216.88448      2860.02748        47.265    22292369.28845
  91283566.51345      2228.59045        40.290
 17  8 21  1 23 30.0000000  0 10G 8G10G14G15G18G20G21G24G27G32
  23744871.11146 124780148.54346      1433.93846        41.354    23744874.91042
  97231307.71242      1117.35242        33.933
  20824307.76049 109432500.64249      1026.38749        49.956    20824309.49647
  85272100.76947       799.77747        44.610
  23633714.36346 124196016.08446      3282.02046        41.833    23633713.93942
  96776113.97842      2557.41442        33.274
  23512877.18748 123561064.85848     -3399.69948        45.738    23512877.15844
  96281386.14944     -2649.12144        36.669
  20760172.35349 109095479.78249      -391.92249        48.681    20760171.56646
  85009482.47846      -305.39846        42.807
  24504750.24444 128773400.91744     -2908.94544        38.806    24504749.84642
 100342925.20342     -2266.71942        33.695
  21289112.22649 111875084.74449     -1455.03949        48.709    21289111.76446
  87175398.39446     -1133.80146        42.568
  22387582.03147 117647558.72847       710.81647        43.801    22387585.22245
  91673443.43345       553.87945        40.120
  22228443.50148 116811285.31348      -650.47748        45.841    22228445.44345
  91021784.97145      -506.86745        40.526
  22276070.19148 117061577.31548      2849.25048        46.531    22276072.43145
  91216834.41145      2220.19145        40.587
 17  8 21  1 24  0.0000000  0 10G 8G10G14G15G18G20G21G24G27G32
  23736735.30946 124737393.31846      1416.48046        41.353    23736738.66443
  97197991.96243      1103.74643        36.040
  20818469.60349 109401820.80249      1018.91849        50.181    20818471.41547
  85248194.40847       793.95747        44.598
  23614997.39145 124097660.78645      3275.10545        40.054    23614997.69242
  96699473.55142      2552.03142        33.786
  23532298.51847 123663123.67547     -3404.25847        45.361    23532298.54043
  96360912.50543     -2652.67243        36.361
  20762428.22949 109107334.30849      -398.21949        48.620    20762427.28546
  85018719.77046      -310.30546        42.953
  24521361.21944 128860693.20644     -2910.37144        38.783    24521360.71641
 100410945.21141     -2267.82041        16.665
  21297458.38449 111918943.31349     -1468.88749        48.776    21297457.81846
  87209573.88746     -1144.59046        42.369
  22383577.61247 117626515.82247       691.94147        44.273    22383580.86045
  91657046.40045       539.17245        40.661
  22232211.82348 116831087.78648      -669.72748        46.312    22232213.69045
  91037215.45545      -521.86745        40.690
  22259834.46148 116976259.11548      2838.59448        47.079    22259836.86245
  91150352.74445      2211.88745        40.201
 17  8 21  1 24 30.0000000  0 10G 8G10G14G15G18G20G21G24G27G32
  23728698.75146 124695160.00546      1399.07046        42.566    23728701.70743
  97165082.89943      1090.18043        35.722
  20812674.98849 109371369.53349      1011.26249        49.989    20812676.76147
  85224466.15747       787.99247        44.701
  23596318.78545 123999505.50545      3268.69545        40.560    23596319.31342
  96622988.99242      2547.03142        33.210
  23551746.14348 123765320.96148     -3408.81248        45.904    23551746.20743
  96440546.74143     -2656.22343        34.905
  20764719.74549 109119375.77149      -404.54749        48.712    20764718.56046
  85028102.73546      -315.23446        42.870
  24537980.57845 128948030.19845     -2911.93045        40.131    24537981.12041
 100478999.95841     -2269.03941        30.398
  21305882.72849 111963214.11549     -1482.60949        48.376    21305881.99946
  87244070.60146     -1155.28546        41.890
  22379681.18747 117606039.57847       673.10247        44.611    22379683.94044
  91641090.89544       524.49244        38.888
  22236088.50848 116851459.14548      -688.62548        46.136    22236090.38045
  91053089.23045      -536.59445        41.011
  22243660.27548 116891263.78048      2827.80548        46.814    22243662.76645
  91084122.64745      2203.48045        40.144
 17  8 21  1 25  0.0000000  0 10G 8G10G14G15G18G20G21G24G27G32
  23720761.82746 124653450.11146      1381.58646        41.839    23720764.39543
  97132581.72043      1076.55943        34.930
  20806923.75349 109341147.05249      1003.69149        50.042    20806925.73247
  85200916.18447       782.09447        44.728
  23577678.76146 123901551.82246      3261.90646        41.755    23577679.16742
  96546661.50042      2541.74242        33.646
  23571219.61148 123867654.46348     -3413.43848        45.891    23571219.75543
  96520287.11443     -2659.82443        36.090
  20767046.79349 109131604.03549      -410.66049        48.731    20767045.57346
  85037631.24846      -320.00046        43.298
  24554609.17944 129035411.76044     -2913.48444        38.799    24554609.34242
 100547089.49242     -2270.25042        33.602
  21314385.53149 112007896.82849     -1496.18449        48.276    21314384.56646
  87278888.28846     -1165.85946        42.756
  22375892.99247 117586131.10447       654.16847        44.376    22375895.27346
  91625577.81546       509.73846        41.260
  22240073.17448 116872398.22148      -707.51248        45.867    22240074.84945
  91069405.39545      -551.31245        40.429
  22227547.87548 116806592.78048      2817.04348        47.444    22227550.36745
  91018145.27845      2195.09445        40.842
 17  8 21  1 25 30.0000000  0 10G 8G10G14G15G18G20G21G24G27G32
  23712924.88646 124612264.85646      1364.09046        42.867    23712926.99042
  97100489.29342      1062.92642        34.332
  20801216.10849 109311153.54449       995.99249        49.958    20801218.17547
  85177544.62247       776.09447        45.127
  23559077.75246 123803801.25146      3254.89846        42.627    23559077.86742
  96470492.25942      2536.28142        33.635
  23590718.41848 123970121.74148     -3418.00848        45.667    23590718.40542
  96600131.73742     -2663.38742        34.105
  20769409.38549 109144019.28949      -416.98049        48.714    20769408.33646
  85047305.47046      -324.92246        42.977
  24571245.20943 129122837.24143     -2914.85243        34.971    24571246.04843
 100615213.17643     -2271.32043        35.639
  21322966.70149 112052991.21549     -1510.05549        48.014    21322965.85246
  87314026.76546     -1176.66846        42.565
  22372213.18847 117566792.02247       635.22747        44.815    22372215.34145
  91610508.40945       494.98045        40.050
  22244165.23447 116893903.84947      -726.50447        45.482    22244167.38345
  91086163.01945      -566.10945        41.053
  22211497.76948 116722247.60448      2806.02348        47.340    22211500.09145
  90952421.77445      2186.50845        40.719
 17  8 21  1 26  0.0000000  0 10G 8G10G14G15G18G20G21G24G27G32
  23705187.67846 124571604.94946      1346.50046        42.856    23705189.60743
  97068806.26443      1049.21943        34.487
  20795551.99849 109281389.21549       988.31649        49.866    20795554.19947
  85154351.64447       770.11347        45.202
  23540515.75847 123706255.39747      3248.03547        43.351    23540515.79542
  96394482.54242      2530.93442        32.528
  23610242.25447 124072720.77647     -3422.26247        44.865    23610242.19444
  96680079.02044     -2666.69944        36.788
  20771807.55649 109156621.62949      -423.16449        48.641    20771806.58847
  85057125.47647      -329.74247        43.613
  24587889.82444 129210306.34144     -2916.60544        38.573    24587889.91841
 100683370.96441     -2272.68441        29.914
  21331626.20449 112098497.15549     -1523.54349        48.600    21331625.52546
  87349485.92846     -1187.18046        42.381
  22368641.53247 117548023.36547       616.05147        44.365    22368643.87145
  91595883.51245       480.03545        40.875
  22248365.08448 116915974.65648      -745.09048        46.291    22248367.58745
  91103361.04345      -580.59445        40.130
  22195509.66548 116638229.62848      2795.13748        47.691    22195512.11445
  90886953.26145      2178.02745        40.136
 17  8 21  1 26 30.0000000  0 10G 8G10G14G15G18G20G21G24G27G32
  23697550.41746 124531471.87346      1329.08246        42.407    23697552.76443
  97037533.76343      1035.64543        35.153
  20789931.52849 109251854.23649       980.84449        49.878    20789933.92547
  85131337.38647       764.28947        44.938
  23521992.92346 123608916.36546      3241.11346        42.371    23521992.20543
  96318633.96543      2525.53943        34.722
  23629790.67547 124175448.94747     -3426.47347        44.758    23629790.24042
  96760126.96442     -2669.98042        33.951
  20774241.23549 109169411.07249      -429.45349        48.614    20774240.42146
  85067091.27146      -334.64146        43.209
  24604543.14044 129297818.86644     -2917.97344        38.789    24604542.98642
 100751562.56242     -2273.75042        32.804
  21340364.09549 112144414.34449     -1537.44949        48.773    21340363.46946
  87385265.53646     -1198.01646        41.806
  22365178.71247 117529826.22247       597.13747        44.395    22365181.20545
  91581703.91745       465.29745        40.606
  22252672.50648 116938609.45948      -763.95348        46.027    22252674.95445
  91120998.54345      -595.29345        40.823
  22179584.05048 116554540.36248      2784.13748        46.900    22179586.59745
  90821740.86245      2169.45345        40.877
 17  8 21  1 27  0.0000000  0 10G 8G10G14G15G18G20G21G24G27G32
  23690013.82946 124491866.94646      1311.38346        42.480    23690016.43443
  97006672.80743      1021.85543        35.787
  20784354.83549 109222548.84449       973.03549        50.090    20784357.44047
  85108502.02447       758.20747        45.151
  23503508.84545 123511785.74045      3234.18045        39.850    23503509.07443
  96242947.85343      2520.14143        35.636
  23649363.41647 124278304.03547     -3430.61747        45.022    23649362.66142
  96840273.78642     -2673.21142        34.085
  20776710.51549 109182387.66849      -435.60949        48.696    20776709.76447
  85077202.90647      -339.43847        43.407
  24621204.58643 129385374.49743     -2919.02743        35.603    24621205.07443
 100819787.67443     -2274.57443        34.788
  21349180.04849 112190742.30749     -1551.18049        48.370    21349179.22346
  87421365.24246     -1208.71546        41.868
  22361824.84247 117512201.66547       577.84847        45.072    22361827.41045
  91567970.52245       450.27045        39.932
  22257086.98447 116961806.94247      -782.45747        45.450    22257089.22646
  91139074.48746      -609.71146        41.241
  22163721.08248 116471181.15848      2773.21148        47.019    22163723.76645
  90756785.67345      2160.94145        40.636
 17  8 21  1 27 30.0000000  0 10G 8G10G14G15G18G20G21G24G27G32
  23682578.00346 124452791.43246      1293.62146        42.349    23682580.77843
  96976224.38143      1008.01243        35.726
  20778821.96049 109193473.25149       965.29749        49.984    20778824.57247
  85085845.72647       752.17647        45.278
  23485064.97445 123414865.21945      3227.31645        40.271    23485065.79941
  96167425.45341      2514.79341        31.727
  23668959.96448 124381284.02048     -3434.61348        46.049    23668959.27543
  96920517.92543     -2676.32443        35.350
  20779215.32149 109195551.36349      -441.93849        48.308    20779214.65146
  85087460.32946      -344.37146        42.991
  24637873.22744 129472972.99144     -2920.76244        36.740    24637873.73841
 100888046.19941     -2275.91841        15.170
  21358074.08049 112237480.88149     -1564.84449        48.314    21358073.25346
  87457784.89746     -1219.36346        42.305
  22358580.12047 117495151.18147       558.52047        43.528    22358582.64345
  91554684.42645       435.20745        40.391
  22261608.01748 116985565.78048      -801.38748        45.638    22261610.13046
  91157587.85946      -624.46146        41.556
  22147921.29648 116388153.50248      2761.93048        47.081    22147924.08345
  90692088.81345      2152.14845        40.094
 17  8 21  1 28  0.0000000  0 10G 8G10G14G15G18G20G21G24G27G32
  23675242.78246 124414245.84446      1276.11346        42.805    23675245.65043
  96946188.87443       994.37143        34.848
  20773332.90749 109164627.63749       957.63349        49.969    20773335.40147
  85063368.62947       746.20347        45.141
  23466661.89046 123318156.19146      3220.17646        42.867    23466662.80141
  96092067.82641      2509.22741        29.079
  23688579.75548 124484386.46648     -3438.84048        45.566    23688579.46342
  97000857.47242     -2679.61742        33.906
  20781755.82149 109208902.46349      -448.05949        48.366    20781755.07946
  85097863.77946      -349.14146        43.085
  24654551.60545 129560613.84645     -2922.08245        40.430    24654550.73141
 100956337.83641     -2276.94541        28.206
  21367046.34749 112284629.62749     -1578.51649        48.680    21367045.28946
  87494524.16146     -1230.01646        41.734
  22355444.70747 117478676.12147       539.65247        43.954    22355447.22545
  91541846.73545       420.50445        40.561
  22266235.65848 117009884.59248      -819.89548        45.782    22266238.05245
  91176537.58345      -638.88345        40.663
  22132184.88948 116305458.76148      2750.94148        47.195    22132187.85945
  90627651.40045      2143.58645        40.583
 17  8 21  1 28 30.0000000  0 10G 8G10G14G15G18G20G21G24G27G32
  23668009.10246 124376231.74146      1258.34846        42.135    23668011.95443
  96916567.48843       980.52743        35.558
  20767887.64949 109136012.22049       949.98049        50.122    20767890.00147
  85041070.91147       740.24247        44.969
  23448299.58046 123221660.27846      3213.00846        42.480    23448300.13543
  96016876.24943      2503.64143        34.573
  23708222.32947 124587609.08847     -3442.68447        44.379    23708222.22543
  97081290.68243     -2682.61343        35.222
  20784332.11749 109222440.87549      -454.41849        48.619    20784331.34546
  85108413.19346      -354.09446        42.872
  24671237.55344 129648296.81644     -2923.21944        38.483    24671236.62941
 101024662.18341     -2277.84041        30.254
  21376096.54049 112332188.20849     -1592.11349        48.466    21376095.30646
  87531582.78946     -1240.60946        41.595
  22352419.30647 117462777.26447       520.27347        44.690    22352421.52545
  91529458.01145       405.40645        39.234
  22270969.57448 117034762.04648      -838.44148        45.593    22270971.91946
  91195922.60846      -653.33646        41.620
  22116512.14248 116223098.38148      2739.78948        47.166    22116514.94045
  90563474.50445      2134.89845        40.611
 17  8 21  1 29  0.0000000  0 10G 8G10G14G15G18G20G21G24G27G32
  23660876.46046 124338750.45946      1240.40246        41.725    23660879.22843
  96887361.30143       966.54343        36.427
  20762486.27949 109107627.23449       942.37149        50.232    20762488.43147
  85018952.74647       734.31247        44.783
  23429978.19646 123125379.46646      3205.72346        43.104    23429978.04241
  95941852.29041      2497.96141        31.679
  23727887.25447 124690949.80447     -3446.62947        44.423    23727887.43943
  97161815.91043     -2685.68843        36.432
  20786944.14849 109236166.70049      -460.62149        48.574    20786943.39846
  85119108.64246      -358.93046        43.199
  24687930.35944 129736021.81644     -2924.50844        38.128    24687930.81542
 101093019.32042     -2278.83242        32.925
  21385224.49749 112380156.41949     -1605.78949        48.379    21385223.44946
  87568960.60946     -1251.26646        41.982
  22349503.94947 117447455.90647       501.17647        44.761    22349506.01645
  91517519.28745       390.52345        40.069
  22275809.43447 117060196.72547      -857.02347        45.039    22275811.97045
  91215741.84545      -667.81245        40.718
  22100903.51548 116141073.72048      2728.59048        46.993    22100906.43145
  90499559.21245      2126.17245        41.048
 17  8 21  1 29 30.0000000  0 10G 8G10G14G15G18G20G21G24G27G32
  23653845.26346 124301802.59746      1222.86346        41.248    23653848.47344
  96858570.79044       952.87944        36.677
  20757128.83249 109079472.90149       934.55149        50.261    20757130.87347
  84997014.31147       728.21947        44.716
  23411697.91046 123029315.23846      3198.43846        42.383    23411697.77142
  95866997.10642      2492.28542        33.178
  23747574.09347 124794406.14847     -3450.45747        44.720    23747574.59843
  97242431.22443     -2688.67243        34.863
  20789591.76549 109250079.91649      -466.89849        48.088    20789591.04746
  85129950.10946      -363.82046        43.014
  24704631.70344 129823788.23044     -2926.33644        38.771    24704632.72041
 101161408.61541     -2280.26641        31.549
  21394430.39649 112428533.98249     -1619.38749        48.376    21394429.56146
  87606657.39746     -1261.86346        41.998
  22346698.68047 117432712.46147       481.69547        44.919    22346700.77345
  91506030.90145       375.34445        40.006
  22280755.06748 117086187.24448      -875.59848        45.646    22280757.77045
  91235994.18645      -682.28545        40.740
  22085359.18948 116059386.18948      2717.32848        47.756    22085362.17546
  90435906.61746      2117.39546        41.287
 17  8 21  1 30  0.0000000  0 10G 8G10G14G15G18G20G21G24G27G32
  23646915.68545 124265388.92345      1204.87145        40.614    23646919.01544
  96830196.50344       938.85544        36.881
  20751815.18649 109051549.40349       926.95749        49.989    20751816.96547
  84975255.74447       722.30147        44.907
  23393458.80446 122933469.46146      3191.21146        41.528    23393458.86042
  95792312.15042      2486.65642        32.747
  23767282.77147 124897976.24747     -3454.13747        44.669    23767283.22343
  97323135.18743     -2691.53943        35.537
  20792275.07949 109264181.10449      -473.24249        48.441    20792274.28946
  85140938.05046      -368.76246        42.636
  24721341.07944 129911595.72944     -2927.09444        37.512    24721340.92641
 101229830.23041     -2280.84441        32.048
  21403714.14949 112477320.94449     -1633.05149        48.139    21403713.44646
  87644673.19746     -1272.51246        42.416
  22344003.86347 117418549.44447       462.43447        44.977    22344006.00345
  91494994.80645       360.33645        40.720
  22285806.48947 117112732.13747      -893.99247        45.543    22285809.15845
  91256678.51745      -696.62145        40.773
  22069879.14049 115978037.11349      2705.95349        47.907    22069881.88046
  90372517.74946      2108.53146        41.336
 17  8 21  1 30 30.0000000  0 10G 8G10G14G15G18G20G21G24G27G32
  23640088.18845 124229511.27445      1187.14145        40.297    23640091.73443
  96802239.91343       925.04343        35.100
  20746545.35949 109023857.01349       919.23049        50.031    20746547.02347
  84953677.26447       716.28147        44.662
  23375261.39546 122837843.60446      3183.67246        41.592    23375261.95042
  95717798.56142      2480.78142        33.940
  23787012.72947 125001657.88747     -3457.91447        43.976    23787012.88943
  97403926.08243     -2694.48043        35.730
  20794994.20749 109278470.38549      -479.54349        48.335    20794993.28046
  85152072.56146      -373.67246        42.964
  24738057.97944 129999444.22344     -2928.82044        37.028    24738058.84141
 101298283.50041     -2282.19941        29.010
  21413075.59849 112526515.87449     -1646.60249        48.654    21413074.90846
  87683006.89546     -1283.07046        42.139
  22341419.16547 117404966.62247       442.97347        44.898    22341421.15845
  91484410.79445       345.17245        39.641
  22290963.18947 117139829.92547      -912.46547        45.400    22290965.81546
  91277793.67446      -711.01646        41.287
  22054463.70649 115897027.85949      2694.53949        48.035    22054466.36445
  90309393.68745      2099.63745        40.732
 17  8 21  1 31  0.0000000  0 10G 8G10G14G15G18G20G21G24G27G32
  23633362.57845 124194170.23945      1169.10945        40.970    23633366.59244
  96774701.45344       910.99244        36.674
  20741319.62149 108996395.95649       911.47349        50.001    20741321.45047
  84932279.04347       710.23447        44.699
  23357106.34246 122742439.21046      3176.55546        41.802    23357106.94742
  95643457.54542      2475.23442        34.210
  23806763.36947 125105448.79747     -3461.59047        45.029    23806763.45243
  97484802.11643     -2697.34843        34.842
  20797749.09949 109292947.40549      -485.80549        48.741    20797748.01346
  85163353.34546      -378.55146        42.743
  24754782.78445 130087333.32245     -2930.42245        40.601    24754783.95442
 101366768.43142     -2283.44942        34.234
  21422514.86349 112576118.92649     -1660.20749        48.422    21422514.12246
  87721658.61446     -1293.67246        41.892
  22338945.10047 117391965.54647       423.78147        44.776    22338947.14245
  91474280.10945       330.21545        40.766
  22296224.73948 117167479.16248      -930.96948        45.680    22296227.06945
  91299338.52345      -725.43445        40.414
  22039113.04349 115816359.76849      2683.22749        47.818    22039115.68446
  90246535.45246      2090.82446        41.726
 17  8 21  1 31 30.0000000  0 10G 8G10G14G15G18G20G21G24G27G32
  23626739.95446 124159366.89746      1151.08246        42.122    23626743.68041
  96747582.01541       896.94541        31.521
  20736138.00849 108969166.42649       903.77349        50.290    20736139.97647
  84911061.22647       704.23447        44.774
  23338993.90046 122647257.90046      3169.03546        41.590    23338994.57242
  95569290.33942      2469.37542        33.544
  23826534.46147 125209346.53047     -3465.09047        45.480    23826534.50841
  97565761.37341     -2700.07441        31.947
  20800539.74949 109307612.06049      -491.93449        48.571    20800538.58346
  85174780.35546      -383.32846        42.840
  24771515.80444 130175262.64744     -2931.83244        37.236    24771516.16341
 101435284.81941     -2284.54741        31.511
  21432031.52949 112626129.53149     -1673.69549        47.887    21432030.62446
  87760627.90646     -1304.18046        41.688
  22336581.65948 117379546.86748       404.28148        46.553    22336583.95945
  91464603.21745       315.02045        40.726
  22301591.00648 117195678.26548      -949.10548        45.575    22301592.98245
  91321311.85645      -739.56645        40.324
  22023827.50948 115736034.21348      2671.76648        47.669    22023830.03246
  90183944.13146      2081.89146        41.237
 17  8 21  1 32  0.0000000  0 10G 8G10G14G15G18G20G21G24G27G32
  23620219.92246 124125102.05146      1133.28946        42.126    23620223.23643
  96720882.15443       883.07843        35.882
  20731000.57549 108942168.68149       896.07849        50.395    20731002.46547
  84890024.02947       698.23847        44.906
  23320924.38646 122552301.59946      3161.25846        42.643    23320924.78142
  95495298.46542      2463.31642        33.938
  23846325.55347 125313349.06047     -3468.51647        45.368    23846325.49342
  97646802.29642     -2702.74242        33.293
  20803366.11449 109322464.84749      -498.26649        48.455    20803364.97446
  85186353.95446      -388.26246        42.727
  24788255.48844 130263232.08244     -2933.03144        38.507    24788255.18941
 101503832.44141     -2285.47341        30.089
  21441625.67949 112676547.33849     -1687.30149        48.235    21441624.56146
  87799914.48946     -1314.78146        41.584
  22334329.18448 117367712.19348       384.73048        46.854    22334331.85445
  91455381.40745       299.78545        40.589
  22307061.47348 117224425.78848      -967.37948        45.812    22307063.46845
  91343712.51845      -753.80545        39.429
  22008607.33149 115656052.49549      2660.41449        47.811    22008609.76045
  90121620.75345      2073.04745        40.866
 17  8 21  1 32 30.0000000  0 10G 8G10G14G15G18G20G21G24G27G32
  23613802.70346 124091376.86546      1114.95346        42.113    23613805.45443
  96694602.79343       868.79343        34.887
  20725907.34249 108915402.92249       888.21549        50.163    20725909.21747
  84869167.60047       692.11347        45.055
  23302897.64146 122457571.52046      3153.87546        42.572    23302897.96542
  95421482.90042      2457.56642        34.389
  23866136.09347 125417454.30447     -3471.86347        44.718    23866136.31042
  97727923.23742     -2705.35242        34.115
  20806228.35549 109337506.02349      -504.52749        48.482    20806227.21646
  85198074.35846      -393.14146        42.845
  24805003.37044 130351241.26344     -2934.44944        38.379    24805003.05142
 101572411.02142     -2286.58642        33.732
  21451297.36049 112727371.88149     -1700.87549        48.156    21451296.08646
  87839518.02746     -1325.35946        41.602
  22332188.12848 117356461.78448       365.28148        46.718    22332190.94945
  91446614.86245       284.63345        40.417
  22312636.15848 117253720.13448      -985.71548        46.062    22312637.97745
  91366539.27645      -768.09445        40.136
  21993452.91448 115576415.94248      2648.75448        47.719    21993455.23246
  90059566.32346      2063.96146        41.591
 17  8 21  1 33  0.0000000  0 10G 8G10G14G15G18G20G21G24G27G32
  23607488.18546 124058192.34646      1096.92246        42.810    23607490.54841
  96668744.73441       854.74241        32.002
  20720858.11249 108888869.45749       880.53949        50.093    20720860.03247
  84848492.17047       686.13347        44.849
  23284914.75446 122363069.46846      3146.35546        42.858    23284914.52443
  95347844.96643      2451.70343        35.741
  23885965.78647 125521659.91647     -3475.09047        45.491    23885965.70843
  97809122.40843     -2707.86743        35.076
  20809126.44249 109352735.34149      -510.82049        48.595    20809125.28146
  85209941.35346      -398.04746        42.668
  24821758.60844 130439289.93044     -2935.86744        37.237    24821758.68041
 101641020.32841     -2287.69541        20.239
  21461046.04149 112778602.81749     -1714.41849        48.219    21461045.09645
  87879438.20745     -1335.91445        40.964
  22330158.63248 117345797.05348       345.80148        46.705    22330161.29546
  91438304.67846       269.45346        41.554
  22318314.52748 117283559.71948     -1003.48048        45.848    22318316.33946
  91389790.88846      -781.93846        41.253
  21978364.47049 115497125.87749      2637.26649        47.864    21978366.81146
  89997781.88046      2055.00846        41.728
 17  8 21  1 33 30.0000000  0 10G 8G10G14G15G18G20G21G24G27G32
  23601276.35046 124025549.16146      1078.98046        42.391    23601278.15742
  96643308.49842       840.76242        34.247
  20715853.02349 108862568.44649       872.80549        50.003    20715854.99547
  84827997.89447       680.10547        44.573
  23266975.24946 122268797.07946      3138.55946        41.790    23266975.05643
  95274386.00043      2445.62543        34.482
  23905814.43947 125625963.98647     -3478.44947        44.385    23905814.20041
  97890398.29841     -2710.48441        32.195
  20812060.38149 109368152.96249      -517.10949        48.613    20812059.08846
  85221955.08546      -402.94546        42.454
  24838521.04944 130527377.44144     -2937.05944        36.889    24838521.52942
 101709659.92642     -2288.62142        33.815
  21470872.32649 112830239.76049     -1728.14849        48.612    21470871.28446
  87919674.77046     -1346.61346        41.530
  22328240.85248 117335718.49748       326.25448        47.013    22328243.52746
  91430451.26846       254.21946        41.113
  22324096.36648 117313942.97248     -1021.85248        46.235    22324098.10445
  91413466.13345      -796.25045        41.064
  21963342.32449 115418183.56049      2625.68049        48.026    21963344.44446
  89936268.41246      2045.98046        41.303
 17  8 21  1 34  0.0000000  0 10G 8G10G14G15G18G20G21G24G27G32
  23595167.73847 123993448.29047      1061.13747        43.553    23595169.35043
  96618294.84643       826.85543        34.764
  20710892.36949 108836500.20449       865.07849        50.118    20710894.41547
  84807684.97847       674.08247        45.153
  23249079.75846 122174755.92046      3130.65646        42.272    23249079.66042
  95201107.21042      2439.46942        33.218
  23925681.25546 125730364.20046     -3481.74246        43.283    23925681.40444
  97971749.10044     -2713.05144        37.269
  20815030.28449 109383759.36549      -523.33649        48.757    20815028.79546
  85234115.92246      -407.79746        42.426
  24855290.74044 130615503.90744     -2938.19144        38.727    24855290.84241
 101778329.91741     -2289.49641        25.976
  21480775.80449 112882281.81549     -1741.53149        48.616    21480774.37745
  87960227.01545     -1357.03945        40.675
  22326434.86448 117326226.96748       306.61348        47.279    22326437.25445
  91423055.27045       238.91845        40.182
  22329981.35848 117344868.20748     -1039.89848        46.161    22329983.02345
  91437563.72545      -810.31245        40.848
  21948386.57349 115339590.28449      2613.86749        48.218    21948388.54046
  89875026.91946      2036.77746        41.242
 17  8 21  1 34 30.0000000  0 10G 8G10G14G15G18G20G21G24G27G32
  23589162.50246 123961890.33446      1042.73046        42.914    23589163.88143
  96593704.23043       812.51643        35.049
  20705976.05349 108810664.93449       857.42649        50.087    20705978.09247
  84787553.60947       668.12147        44.766
  23231228.66346 122080947.36346      3123.15246        42.627    23231229.02343
  95128009.70343      2433.62543        35.998
  23945565.87847 125834858.40947     -3484.76247        44.142    23945566.31742
  98053173.16142     -2715.40242        34.124
  20818035.96149 109399554.22749      -529.58249        48.701    20818034.37146
  85246423.61846      -412.66446        42.757
  24872068.62845 130703668.52445     -2939.84445        39.462    24872067.58341
 101847029.70141     -2290.78941        30.320
  21490756.13549 112934728.91349     -1755.00449        47.922    21490754.70646
  88001094.87746     -1367.53946        41.188
  22324740.65248 117317323.53248       286.87148        46.938    22324742.85145
  91416117.54445       223.53145        40.847
  22335969.10248 117376333.82248     -1057.63748        45.895    22335971.18045
  91462082.36745      -824.13745        40.874
  21933497.36949 115261347.30249      2602.30149        48.019    21933499.62646
  89814058.39946      2027.76246        41.311
 17  8 21  1 35  0.0000000  0 10G 8G10G14G15G18G20G21G24G27G32
  23583260.85047 123930876.45047      1024.62547        43.659    23583261.99842
  96569537.57442       798.40642        33.999
  20701104.17749 108785062.91749       849.52749        50.375    20701106.05047
  84767603.98747       661.96547        44.891
  23213422.15047 121987372.83947      3115.42247        43.722    23213422.40442
  95055094.53942      2427.59842        33.943
  23965468.14647 125939444.62647     -3487.75847        43.997    23965468.42042
  98134668.89942     -2717.73842        34.275
  20821077.56649 109415537.93249      -535.96549        48.479    20821076.03146
  85258878.45146      -417.63746        43.176
  24888853.08744 130791871.64044     -2940.89544        37.642    24888852.19843
 101915759.33843     -2291.60943        35.327
  21500813.50149 112987580.47649     -1768.43049        48.468    21500812.05946
  88042277.89846     -1378.00046        41.173
  22323158.29848 117309008.82048       267.31648        46.541    22323160.74345
  91409638.55945       208.29745        40.960
  22342059.29048 117408338.16148     -1075.87548        45.747    22342061.45545
  91487020.80645      -838.34845        40.704
  21918675.06449 115183455.93649      2590.47349        48.021    21918677.39646
  89753363.84746      2018.54746        41.738
 17  8 21  1 35 30.0000000  0 10G 8G10G14G15G18G20G21G24G27G32
  23577462.63846 123900406.98346      1006.68446        43.199    23577464.46643
  96545795.15343       784.42643        35.606
  20696276.73249 108759694.39949       841.66049        49.968    20696278.57347
  84747836.31647       655.83647        44.877
  23195660.74046 121894034.32946      3107.22346        42.780    23195660.87143
  94982363.24943      2421.21143        36.557
  23985387.23446 126044120.43346     -3490.78546        42.867    23985387.51843
  98216234.46643     -2720.09443        36.103
  20824155.08149 109431710.57349      -542.24249        48.707    20824153.73646
  85271480.50746      -422.53146        42.720
  24905644.33344 130880112.47144     -2942.13744        37.500    24905643.99041
 101984518.40341     -2292.57441        31.599
  21510947.82149 113040835.78249     -1781.94549        48.369    21510946.50546
  88083775.53746     -1388.53146        41.399
  22321688.17948 117301284.01148       247.68448        46.389    22321690.86946
  91403619.24046       192.99646        41.196
  22348251.37447 117440879.50947     -1093.62547        45.441    22348253.66745
  91512377.69645      -852.18045        40.146
  21903919.93949 115105917.39849      2578.69149        48.368    21903922.28446
  89692944.23946      2009.36746        41.980
 17  8 21  1 36  0.0000000  0 10G 8G10G14G15G18G20G21G24G27G32
  23571768.55347 123870483.08047       988.31247        43.999    23571770.65843
  96522477.82043       770.10943        35.847
  20691493.76249 108734559.63849       833.91449        50.151    20691495.74247
  84728250.78747       649.80147        44.918
  23177943.89046 121800933.53746      3099.28546        43.306    23177944.14843
  94909817.22243      2415.02343        36.274
  24005323.06647 126148883.77447     -3493.69147        43.963    24005323.22543
  98297868.23943     -2722.35943        35.238
  20827268.61349 109448072.44849      -548.55949        48.648    20827267.32646
  85284230.02246      -427.45346        42.620
  24922443.43244 130968390.98144     -2943.17244        37.119    24922442.69041
 102053306.86841     -2293.38341        30.557
  21521158.71949 113094494.13549     -1795.48849        48.413    21521157.64346
  88125587.21746     -1399.08646        41.494
  22320330.24148 117294149.31248       227.98048        46.124    22320333.34045
  91398059.75745       177.64545        40.758
  22354545.30747 117473956.21747     -1111.37147        45.445    22354547.74445
  91538151.73545      -866.00845        39.973
  21889232.34549 115028732.91249      2566.98049        48.624    21889234.57146
  89632800.50246      2000.24246        41.871
 17  8 21  1 36 30.0000000  0 10G 8G10G14G15G18G20G21G24G27G32
  23566178.13046 123841105.56546       970.13346        43.245    23566180.04643
  96499586.25743       755.94543        35.854
  20686755.33549 108709658.88549       826.13749        50.235    20686757.24447
  84708847.60447       643.73847        44.872
  23160272.84446 121708071.62146      3091.17646        42.570    23160273.09942
  94837457.34842      2408.70742        33.683
  24025275.03946 126253733.03646     -3496.46146        42.845    24025275.26543
  98379568.93543     -2724.52043        34.931
  20830418.17149 109464623.41849      -554.91849        48.620    20830416.79146
  85297126.88646      -432.40646        42.874
  24939249.27544 131056706.72144     -2944.29744        38.556    24939248.54042
 102122124.36042     -2294.26242        32.584
  21531446.28949 113148555.35149     -1808.81249        48.668    21531445.08545
  88167712.83445     -1409.46945        40.777
  22319084.80248 117287605.77748       208.35248        46.027    22319088.11646
  91392960.90346       162.34846        41.253
  22360941.19747 117507566.47247     -1129.29747        45.320    22360943.61645
  91564341.53945      -879.97745        41.012
  21874612.30949 114951903.74749      2554.97749        48.590    21874614.30146
  89572933.63646      1990.88746        41.659
 17  8 21  1 37  0.0000000  0 10G 8G10G14G15G18G20G21G24G27G32
  23560692.01547 123812275.05147       951.79747        43.342    23560693.89042
  96477120.92242       741.65642        33.096
  20682061.57749 108684992.42349       818.44149        50.392    20682063.28547
  84689626.98647       637.74247        45.057
  23142647.18046 121615450.26546      3083.15646        42.701    23142647.51842
  94765284.88442      2402.45742        34.081
  24045242.91147 126358665.57047     -3499.20747        43.728    24045243.20043
  98461334.56443     -2726.65643        35.753
  20833603.80049 109481363.88449      -561.21549        48.710    20833602.37346
  85310171.41346      -437.31246        42.048
  24956061.82843 131145059.43743     -2945.56643        35.647    24956062.02743
 102190970.61043     -2295.25443        36.562
  21541810.20049 113203018.40549     -1822.19949        48.319    21541808.99746
  88210151.56446     -1419.89846        41.200
  22317952.15848 117281654.03148       188.50848        46.076    22317955.18846
  91388323.19546       146.88746        41.399
  22367438.31548 117541708.56148     -1147.01248        45.590    22367440.75345
  91590945.75045      -893.77745        40.944
  21860059.91049 114875431.08449      2543.13749        48.276    21860062.08246
  89513344.57246      1981.66046        41.540
 17  8 21  1 37 30.0000000  0 10G 8G10G14G15G18G20G21G24G27G32
  23555309.80747 123783992.33547       933.50847        43.399    23555311.76743
  96455082.45543       727.40643        35.658
  20677412.42349 108660560.51149       810.50049        50.413    20677414.10647
  84670589.13247       631.55547        44.841
  23125067.93146 121523070.95446      3075.14846        43.160    23125068.44543
  94693301.05543      2396.21543        35.538
  24065226.03046 126463679.57046     -3501.90246        43.066    24065226.71743
  98543163.60143     -2728.75843        34.605
  20836825.42549 109498293.71349      -567.46549        48.580    20836824.12046
  85323363.48746      -442.18446        42.778
  24972881.11344 131233448.89044     -2947.17644        36.853    24972882.27243
 102259845.47543     -2296.50443        34.763
  21552250.41849 113257882.73749     -1835.51249        48.338    21552249.14245
  88252902.97945     -1430.27345        40.620
  22316932.46548 117276294.61348       168.87548        46.687    22316935.00345
  91384147.03945       131.58645        40.160
  22374036.36048 117576380.69448     -1164.59048        45.710    22374038.47045
  91617962.99845      -907.47745        39.770
  21845575.51349 114799316.17049      2531.31649        48.035    21845577.91946
  89454034.28246      1972.44946        41.390
 17  8 21  1 38  0.0000000  0 10G 8G10G14G15G18G20G21G24G27G32
  23550032.14146 123756258.10146       915.42246        43.182    23550034.07343
  96433471.38943       713.31243        35.480
  20672807.84549 108636363.40849       802.65249        50.269    20672809.68647
  84651734.25247       625.44147        45.405
  23107535.24246 121430935.18446      3067.18046        43.288    23107535.07942
  94621506.97042      2390.00842        32.587
  24085224.63946 126568772.96846     -3504.64546        42.937    24085225.17843
  98625054.58143     -2730.89543        34.550
  20840083.10449 109515412.99949      -573.78149        48.584    20840081.94046
  85336703.19946      -447.10546        42.467
  24989708.18544 131321874.76944     -2948.25044        37.700    24989709.29241
 102328748.80441     -2297.33641        27.060
  21562767.06149 113313148.16849     -1848.87549        48.382    21562765.70746
  88295966.94746     -1440.68446        41.156
  22316025.47148 117271528.33848       148.70348        46.395    22316027.85245
  91380433.07145       115.87145        40.551
  22380734.96747 117611581.08347     -1182.19547        45.465    22380736.86945
  91645391.87045      -921.19545        40.224
  21831159.40048 114723560.17648      2519.27348        47.694    21831161.84746
  89395003.65946      1963.06646        41.333
 17  8 21  1 38 30.0000000  0 10G 8G10G14G15G18G20G21G24G27G32
  23544858.55146 123729072.83846       897.17246        42.079    23544861.03842
  96412288.07242       699.09042        34.392
  20668247.86249 108612401.38549       794.84449        50.063    20668250.04548
  84633062.54548       619.35548        45.573
  23090048.98646 121339044.67046      3058.89546        42.716    23090048.64943
  94549903.98543      2383.55143        35.895
  24105238.04447 126673943.45647     -3507.06247        44.022    24105238.15042
  98707005.57142     -2732.77742        32.304
  20843376.86249 109532722.13449      -580.12949        48.611    20843375.76146
  85350190.83646      -452.05146        42.849
  25006542.01543 131410336.90243     -2949.76243        36.629    25006543.27642
 102397680.33542     -2298.52042        32.527
  21573359.93049 113368813.82249     -1862.25449        47.974    21573358.60646
  88339342.77046     -1451.10946        41.722
  22315231.50548 117267355.59848       129.20348        46.874    22315233.83745
  91377181.60445       100.67645        39.650
  22387533.59347 117647307.92647     -1199.62547        44.999    22387535.56545
  91673230.95645      -934.77745        40.958
  21816811.97449 114648164.28249      2507.10549        48.053    21816814.35946
  89336253.62646      1953.58646        41.844
 17  8 21  1 39  0.0000000  0 10G 8G10G14G15G18G20G21G24G27G32
  23539789.61546 123702437.23746       878.75846        41.917    23539792.70744
  96391533.08744       684.74244        36.669
  20663732.58649 108588674.71749       787.12949        50.021    20663735.02747
  84614574.24347       613.34447        45.350
  23072609.46146 121247400.65746      3050.77746        42.688    23072609.47743
  94478493.12043      2377.22743        34.664
  24125265.96947 126779189.16447     -3509.53547        44.137    24125265.89842
  98789015.20842     -2734.70742        33.888
  20846706.76349 109550221.17349      -586.37949        48.641    20846705.71446
  85363826.44946      -456.92246        42.277
  25023382.77744 131498834.96144     -2950.34044        36.750    25023383.76942
 102466639.86442     -2298.97742        32.948
  21584028.76048 113424879.08948     -1875.49648        47.736    21584027.52946
  88383029.97846     -1461.43046        41.486
  22314550.76848 117263777.38448       109.31248        46.650    22314552.82945
  91374393.39645        85.17645        40.008
  22394431.74947 117683559.32847     -1217.15247        45.148    22394433.91945
  91701478.78745      -948.43445        40.587
  21802533.48249 114573129.65849      2495.10549        48.596    21802535.80446
  89277785.11046      1944.23446        41.914
 17  8 21  1 39 30.0000000  0  9G 8G10G14G15G18G21G24G27G32
  23534825.55945 123676352.08545       860.39545        40.921    23534828.78844
  96371206.99144       670.43444        38.278
  20659262.35249 108565183.72449       779.05549        50.097    20659264.92347
  84596269.57147       607.05147        45.295
  23055217.55347 121156005.01047      3042.49647        43.375    23055217.68144
  94407275.76544      2370.77344        36.968
  24145307.91147 126884508.12247     -3511.72747        44.676    24145307.36142
  98871081.93642     -2736.41442        32.366
  20850072.83449 109567910.60349      -592.76649        48.446    20850071.86946
  85377610.42146      -461.89846        42.309
  21594773.39348 113481343.33248     -1888.75848        47.680    21594772.40845
  88427028.07045     -1471.76245        41.006
  22313982.99448 117260793.88348        89.73448        46.256    22313984.84945
  91372068.60645        69.91845        40.642
  22401429.49147 117720333.47447     -1234.35947        44.831    22401431.66445
  91730133.95445      -961.84045        40.314
  21788323.99749 114498457.51349      2482.96549        48.670    21788326.29446
  89219599.04846      1934.77346        42.103
 17  8 21  1 40  0.0000000  0 10G 8G10G14G15G18G20G21G24G27G32
  23529966.13945 123650818.08945       841.41045        40.881    23529969.81743
  96351310.35943       655.64143        34.815
  20654837.13549 108541928.64049       771.16849        50.192    20654839.57147
  84578148.73747       600.90647        45.240
  23037872.84246 121064858.91446      3033.84846        42.934    23037873.04142
  94336252.90842      2364.03542        33.917
  24165363.20047 126989898.12647     -3514.11347        44.673    24165362.45142
  98953204.00142     -2738.27342        33.595
  20853475.16249 109585790.59649      -599.09449        48.242    20853474.39346
  85391542.88646      -466.82846        43.150
  25057084.33644 131675855.38344     -2952.93844        38.416    25057085.19241
 102604573.70141     -2300.99241        30.239
  21605593.88749 113538205.63549     -1902.14849        47.889    21605592.83345
  88471336.35245     -1482.19545        40.686
  22313528.48148 117258406.05948        69.86748        46.298    22313530.37245
  91370207.98945        54.43845        39.325
  22408526.43347 117757628.48747     -1251.82447        44.826    22408528.35545
  91759194.98545      -975.44945        40.540
  21774183.70349 114424148.96149      2470.82449        48.492    21774186.14246
  89161696.30346      1925.31246        42.452
 17  8 21  1 40 30.0000000  0  9G 8G10G14G15G18G21G24G27G32
  23525211.86745 123625835.46645       823.35245        41.030    23525215.76143
  96331843.39543       641.57043        36.618
  20650456.93049 108518909.77749       763.35549        50.384    20650459.13948
  84560211.95448       594.82048        45.651
  23020576.32147 120973963.98747      3025.52347        44.154    23020576.30643
  94265425.72343      2357.54743        36.079
  24185431.39847 127095357.29447     -3516.42647        43.714    24185431.08543
  99035379.95643     -2740.07443        35.006
  20856913.75349 109603860.83849      -605.50049        48.133    20856913.05946
  85405623.59346      -471.82046        42.907
  21616490.18249 113595465.67749     -1915.25449        48.157    21616488.89345
  88515954.56345     -1492.41045        40.822
  22313187.61248 117256614.17448        49.77348        46.720    22313189.60245
  91368811.71845        38.78145        40.673
  22415722.08947 117795442.47847     -1269.07847        44.933    22415724.42545
  91788660.40445      -988.89545        40.380
  21760112.62049 114350205.14449      2458.64149        48.624    21760115.20346
  89104077.77946      1915.82046        42.544
 17  8 21  1 41  0.0000000  0  9G 8G10G14G15G18G21G24G27G32
  23520563.04345 123601405.09145       805.12945        40.960    23520566.74543
  96312806.73443       627.37143        35.879
  20646121.76449 108496127.40049       755.44549        50.529    20646123.78948
  84542459.46548       588.65648        45.573
  23003327.91647 120883321.67347      3016.89147        44.658    23003327.93442
  94194795.40042      2350.82042        34.091
  24205512.38947 127200883.34947     -3518.65247        44.069    24205511.95642
  99117608.06042     -2741.80942        33.831
  20860388.59149 109622121.55849      -611.93049        48.321    20860388.13546
  85419852.72846      -476.83246        43.230
  21627462.03749 113653122.53149     -1928.50449        48.390    21627460.92745
  88560881.96545     -1502.73445        40.541
  22312960.15148 117255418.42448        29.83648        46.794    22312962.21445
  91367879.97245        23.24645        39.909
  22423016.36447 117833773.52647     -1286.25047        45.311    22423018.61345
  91818528.73445     -1002.27745        39.844
  21746111.07549 114276627.16849      2446.51649        48.342    21746113.67946
  89046744.31646      1906.37146        42.215
 17  8 21  1 41 30.0000000  0  9G 8G10G14G15G18G21G24G27G32
  23516019.53945 123577527.48245       786.66845        40.961    23516022.84344
  96294200.80844       612.98444        36.699
  20641831.63349 108473581.81349       747.48449        50.453    20641833.58348
  84524891.48148       582.45348        45.704
  22986127.90347 120792933.62247      3009.19147        43.909    22986127.17643
  94124363.16243      2344.82043        35.220
  24225605.19546 127306474.53746     -3520.73846        42.206    24225605.32943
  99199886.86443     -2743.44143        35.305
  20863899.81349 109640573.14549      -618.23049        48.281    20863899.40146
  85434230.58846      -481.74246        42.583
  21638509.21949 113711175.83149     -1941.73849        48.040    21638508.22946
  88606118.28746     -1513.04746        41.146
  22312846.38748 117254819.97448         9.94148        46.618    22312848.37445
  91367413.64245         7.74245        40.663
  22430408.61647 117872619.63247     -1303.37547        45.143    22430410.70945
  91848798.42145     -1015.62145        39.751
  21732179.44249 114203416.22949      2434.21949        48.678    21732181.96346
  88989696.84746      1896.78946        41.983
 17  8 21  1 42  0.0000000  0  9G 8G10G14G15G18G21G24G27G32
  23511581.09645 123554203.21145       767.91445        40.738    23511584.28042
  96276026.06342       598.37142        34.197
  20637586.47249 108451273.32149       739.63349        50.288    20637588.42848
  84507508.24848       576.33648        45.622
  22968975.98546 120702800.97046      3000.09846        43.189    22968975.40944
  94054129.96544      2337.73444        37.874
  24245710.28646 127412128.60046     -3522.78546        43.072    24245710.84443
  99282214.69343     -2745.03143        35.068
  20867447.51249 109659216.12249      -624.56249        48.558    20867447.00346
  85448757.58046      -486.67646        42.700
  21649631.65949 113769624.39849     -1954.93449        47.823    21649630.81845
  88651662.60445     -1523.32845        40.620
  22312846.41348 117254819.02148        -9.94548        47.101    22312848.45145
  91367412.92345        -7.75445        40.296
  22437898.55847 117911978.92047     -1320.52047        45.054    22437900.29345
  91879467.98445     -1028.98045        39.854
  21718317.90949 114130573.32049      2421.95749        48.685    21718320.31146
  88932936.17546      1887.23446        41.977
 17  8 21  1 42 30.0000000  0  9G 8G10G14G15G18G21G24G27G32
  23507248.09446 123531432.41446       749.75046        41.431    23507251.42743
  96258282.60843       584.21943        34.650
  20633386.38249 108429202.21449       731.73849        50.382    20633388.43947
  84490309.99047       570.18447        45.435
  22951872.99846 120612925.04746      2991.53146        42.877    22951872.52844
  93984096.81944      2331.05944        37.250
  24265827.14946 127517843.84046     -3524.73046        42.255    24265827.96742
  99364590.20942     -2746.54742        34.424
  20871031.64949 109678050.23549      -630.94549        48.598    20871030.97946
  85463433.51646      -491.64846        43.286
  21660829.09448 113828467.60348     -1967.94548        47.592    21660828.02645
  88697514.44145     -1533.46945        40.607
  22312960.00048 117255415.63448       -29.75048        46.681    22312961.97945
  91367877.82445       -23.18445        40.900
  22445485.85847 117951849.34347     -1337.52347        45.398    22445487.48845
  91910535.83845     -1042.23045        39.389
  21704526.55849 114058099.61749      2409.72749        48.417    21704528.74746
  88876463.16946      1877.70746        42.417
 17  8 21  1 43  0.0000000  0  9G 8G10G14G15G18G21G24G27G32
  23503020.62146 123509215.96046       731.22746        41.431    23503023.68542
  96240971.09242       569.78542        34.280
  20629231.52349 108407368.75949       723.86349        50.371    20629233.68048
  84473296.91848       564.04748        45.629
  22934818.95546 120523307.80546      2982.84046        42.946    22934819.04844
  93914265.23644      2324.28944        37.054
  24285955.23046 127623618.26346     -3526.67246        43.165    24285955.87543
  99447011.78943     -2748.05943        35.608
  20874652.09849 109697075.36049      -637.34449        48.250    20874651.35646
  85478258.28546      -496.63346        42.835
  21672101.47949 113887704.74049     -1981.09849        47.781    21672100.21945
  88743673.24145     -1543.71545        39.754
  22313187.35048 117256610.47948       -49.69948        47.133    22313189.16445
  91368808.89245       -38.73045        40.394
  22453169.94248 117992228.92348     -1354.42648        45.973    22453171.88445
  91942000.43145     -1055.39845        39.701
  21690805.61649 113985996.17349      2397.24649        48.594    21690807.72546
  88820278.68846      1867.98046        42.280
 17  8 21  1 43 30.0000000  0  9G 8G10G14G15G18G21G24G27G32
  23498898.34046 123487553.76846       712.78546        42.134    23498901.50244
  96224091.48444       555.41444        37.111
  20625122.01849 108385773.31749       715.80149        50.273    20625124.15447
  84456469.31347       557.76247        45.464
  22917814.63146 120433950.61546      2974.12546        43.316    22917815.06843
  93844636.31643      2317.49643        36.618
  24306094.52947 127729449.63347     -3528.60947        44.082    24306094.97442
  99529477.83142     -2749.57042        34.282
  20878309.01749 109716292.38549      -643.82449        48.616    20878308.28846
  85493232.59646      -501.68446        42.921
  21683448.82049 113947335.22949     -1994.31649        47.849    21683447.61745
  88790138.55345     -1554.01645        40.250
  22313528.54148 117258403.71348       -69.68448        47.212    22313529.98545
  91370206.22645       -54.30145        40.392
  22460950.44347 118033115.59447     -1371.28547        45.411    22460952.30645
  91973860.20045     -1068.53545        40.961
  21677155.45149 113914264.07049      2384.84049        48.641    21677157.58046
  88764383.57146      1858.31246        42.054
 17  8 21  1 44  0.0000000  0  9G 8G10G14G15G18G21G24G27G32
  23494881.91546 123466446.60446       694.62946        41.985    23494884.74644
  96207644.34744       541.26644        37.491
  20621057.87149 108364416.16749       707.94549        50.435    20621059.91047
  84439827.38847       551.64147        45.111
  22900860.17347 120344854.68147      2965.58247        43.459    22900860.42343
  93775210.94943      2310.84043        34.849
  24326244.14247 127835336.13547     -3530.37947        44.956    24326244.75141
  99611986.77241     -2750.94941        32.213
  20882002.35549 109735700.99449      -650.17649        48.574    20882001.63546
  85508356.18546      -506.63346        42.875
  21694870.71648 114007357.99248     -2007.26248        47.532    21694869.75245
  88836909.52445     -1564.10245        40.381
  22313983.84948 117260796.13948       -89.76248        47.402    22313985.11445
  91372070.46545       -69.94945        40.192
  22468827.03147 118074507.41347     -1388.12947        45.368    22468829.01845
  92006113.54545     -1081.66045        40.599
  21663576.12249 113842904.35849      2372.42249        48.496    21663578.42347
  88708778.61847      1848.63747        43.352
 17  8 21  1 44 30.0000000  0  9G 8G10G14G15G18G21G24G27G32
  23490970.88446 123445895.00846       675.67646        41.726    23490974.04143
  96191630.10443       526.49643        35.178
  20617039.18549 108343297.61849       699.93849        50.441    20617041.14247
  84423371.38147       545.40247        45.288
  22883955.85047 120256021.43447      2956.66447        43.690    22883955.85542
  93705990.26442      2303.89142        33.374
  24346403.84647 127941275.91547     -3532.21547        43.592    24346404.45642
  99694537.23642     -2752.38342        34.141
  20885732.16249 109755301.38549      -656.57049        48.415    20885731.40046
  85523629.21546      -511.61746        42.847
  21706367.10649 114067772.46349     -2020.27749        47.905    21706366.38545
  88883985.71245     -1574.24645        39.946
  22314552.95248 117263787.14548      -109.65248        46.553    22314554.42345
  91374401.13245       -85.44545        40.715
  22476799.43448 118116402.25148     -1404.96948        45.581    22476801.43745
  92038758.87645     -1094.78545        39.866
  21650067.58649 113771918.05249      2359.80949        48.232    21650070.27446
  88653464.64846      1838.80946        42.693
 17  8 21  1 45  0.0000000  0  9G 8G10G14G15G18G21G24G27G32
  23487166.02746 123425898.97846       657.15246        42.421    23487169.13743
  96176048.80743       512.06243        36.405
  20613065.95649 108322417.99749       691.98049        50.423    20613067.69847
  84407101.55147       539.20347        44.794
  22867101.82547 120167452.41947      2947.76647        43.783    22867101.36642
  93636975.47142      2296.95742        34.089
  24366573.45646 128047266.88346     -3533.82046        43.214    24366573.91543
  99777127.62043     -2753.62943        35.080
  20889498.55549 109775094.13149      -662.82449        48.567    20889497.67346
  85539052.13746      -516.48846        42.370
  21717938.13249 114128577.74649     -2033.43449        48.072    21717937.15845
  88931366.44645     -1584.49645        40.599
  22315236.01548 117267377.39248      -129.72748        46.822    22315237.95845
  91377198.74145      -101.09045        40.233
  22484867.00047 118158798.06747     -1421.60547        44.924    22484869.12545
  92071794.56245     -1107.74645        40.817
  21636630.39849 113701306.22449      2347.39549        48.398    21636633.52046
  88598442.47546      1829.13746        42.540
 17  8 21  1 45 30.0000000  0  9G 8G10G14G15G18G21G24G27G32
  23483466.82146 123406458.96846       638.68846        42.222    23483469.90444
  96160900.72544       497.67644        37.059
  20609138.20449 108301777.57449       683.97349        50.412    20609139.74947
  84391018.11547       532.96147        44.850
  22850298.21547 120079149.00247      2939.02047        43.676    22850297.79343
  93568167.64243      2290.14143        35.654
  24386752.13946 128153307.21546     -3535.41446        42.476    24386752.71442
  99859756.42842     -2754.87142        34.139
  20893301.63249 109795079.37749      -669.36749        48.462    20893300.58546
  85554625.05946      -521.59046        42.737
  21729583.17548 114189772.69448     -2046.27048        47.290    21729582.13445
  88979050.82145     -1594.50045        40.700
  22316033.21048 117271567.42148      -149.68848        46.914    22316035.49945
  91380463.70945      -116.64545        40.703
  22493029.64847 118201692.70547     -1438.23447        45.083    22493031.72746
  92105218.95746     -1120.70746        41.137
  21623264.87949 113631069.87249      2334.93049        48.670    21623267.90146
  88543712.87046      1819.42246        42.868
 17  8 21  1 46  0.0000000  0  9G 8G10G14G15G18G21G24G27G32
  23479873.69846 123387575.40146       620.10546        42.833    23479876.56643
  96146186.26943       483.19543        34.549
  20605256.05449 108281376.73149       676.09849        50.407    20605257.41447
  84375121.35647       526.82447        44.927
  22833545.42047 119991112.62347      2930.25447        43.857    22833545.35044
  93499567.91644      2283.31244        37.251
  24406940.20846 128259394.87046     -3536.97746        43.033    24406940.83343
  99942422.09143     -2756.09043        35.556
  20897141.32849 109815257.07349      -675.73849        48.344    20897140.16946
  85570347.94346      -526.55146        42.419
  21741302.07048 114251356.79248     -2059.29348        47.268    21741301.20845
  89027038.41345     -1604.64845        40.708
  22316944.66748 117276357.39548      -169.58248        47.027    22316946.91945
  91384196.14745      -132.14545        40.697
  22501286.61247 118245084.14247     -1454.66047        44.874    22501288.71145
  92139030.43845     -1133.50445        40.854
  21609971.03649 113561210.02749      2322.39849        48.704    21609973.98846
  88489276.65946      1809.65646        42.546
 17  8 21  1 46 30.0000000  0  9G 8G10G14G15G18G21G24G27G32
  23476386.36146 123369248.50146       601.57846        43.041    23476389.12043
  96131905.56343       468.75843        35.338
  20601419.49249 108261215.73949       668.04749        50.378    20601420.89147
  84359411.49847       520.55547        45.020
  22816843.95247 119903344.64247      2921.08247        44.306    22816843.90744
  93431177.31844      2276.16444        37.230
  24427136.70746 128365527.98546     -3538.65246        42.209    24427137.23042
 100025123.21642     -2757.41042        34.079
  20901017.71249 109835627.34349      -682.20749        48.731    20901016.42346
  85586220.88246      -531.59446        42.382
  21753094.92348 114313329.33148     -2072.13348        47.559    21753094.41345
  89075328.69145     -1614.65245        40.757
  22317970.24548 117281747.48848      -189.70748        46.298    22317972.60545
  91388396.24445      -147.82845        40.442
  22509637.74847 118288970.16547     -1471.15647        44.903    22509639.74645
  92173227.32545     -1146.35945        39.459
  21596749.14849 113491727.70649      2309.77749        48.666    21596751.62746
  88435134.61446      1799.82446        42.689
 17  8 21  1 47  0.0000000  0  9G 8G10G14G15G18G21G24G27G32
  23473004.99546 123351478.75746       583.00446        43.219    23473007.11343
  96118059.01543       454.28543        36.462
  20597628.59749 108241294.96349       660.01649        50.258    20597630.10247
  84343888.82447       514.29347        44.893
  22800193.62047 119815846.41747      2912.21547        43.740    22800193.76843
  93362996.91043      2269.25443        36.355
  24447341.46647 128471704.72247     -3539.93047        43.624    24447341.51442
 100107858.32742     -2758.39142        34.419
  20904930.81349 109856190.53849      -688.57849        48.634    20904929.49146
  85602244.15546      -536.55946        42.637
  21764961.61848 114375689.15448     -2085.18048        47.637    21764961.55045
  89123920.75345     -1624.82045        40.341
  22319110.06148 117287738.00748      -209.63748        46.362    22319112.47445
  91393064.19445      -163.35545        40.142
  22518082.64147 118333348.64247     -1487.52747        44.653    22518084.48145
  92207807.94345     -1159.11745        40.151
  21583599.24349 113422623.84649      2297.22749        49.127    21583601.45446
  88381287.47646      1790.04346        41.867
 17  8 21  1 47 30.0000000  0  9G 8G10G14G15G18G21G24G27G32
  23469729.37946 123334266.40246       564.41446        41.970    23469731.70743
  96104646.78643       439.80143        35.736
  20593883.42749 108221614.70149       652.06249        50.193    20593885.11147
  84328553.55447       508.09847        45.222
  22783594.50647 119728619.19747      2903.17247        43.788    22783594.96443
  93295027.71343      2262.20743        35.791
  24467554.23246 128577922.98146     -3541.21546        43.088    24467554.18742
 100190625.78542     -2759.39142        33.581
  20908880.70149 109876947.17249      -695.18849        48.589    20908879.34046
  85618418.15646      -541.70746        42.106
  21776901.91048 114438435.49248     -2097.97748        47.692    21776901.92945
  89172813.99845     -1634.78945        40.144
  22320364.23148 117294329.06848      -229.72748        46.667    22320366.75245
  91398200.08245      -179.01245        40.559
  22526621.04347 118378217.42647     -1503.81647        45.249    22526622.60145
  92242770.60945     -1171.80945        39.571
  21570521.50649 113353899.44949      2284.41449        48.963    21570523.40546
  88327736.02446      1780.05946        42.026
 17  8 21  1 48  0.0000000  0  9G 8G10G14G15G18G21G24G27G32
  23466559.88146 123317611.46046       545.89846        42.305    23466562.07143
  96091668.90643       425.37143        35.802
  20590184.15049 108202175.27949       643.98849        50.330    20590185.95947
  84313405.96147       501.80547        45.003
  22767047.44847 119641664.52047      2893.78147        44.196    22767047.92043
  93227270.86643      2254.89543        35.814
  24487774.59447 128684181.22247     -3542.44947        43.448    24487774.04643
 100273424.45543     -2760.38743        34.572
  20912867.35149 109897897.14549      -701.61749        48.619    20912866.02846
  85634742.81646      -546.71946        42.566
  21788915.53948 114501567.44948     -2110.60248        47.147    21788915.29145
  89222007.73345     -1644.62945        40.944
  22321732.70948 117301520.20948      -249.62548        46.454    22321734.83145
  91403803.57745      -194.51645        39.582
  22535252.35547 118423574.29247     -1519.98047        44.579    22535253.58245
  92278113.61845     -1184.40245        39.407
  21557516.19749 113285555.47849      2271.83649        49.028    21557517.69346
  88274480.98246      1770.25846        41.699
 17  8 21  1 48 30.0000000  0  9G 8G10G14G15G18G21G24G27G32
  23463496.30746 123301513.95146       527.23846        42.125    23463498.84943
  96079125.41743       410.83243        35.647
  20586530.95749 108182977.07749       635.91049        50.426    20586532.66647
  84298446.32447       495.51247        45.037
  22750552.62547 119554983.81147      2884.79747        43.894    22750553.00342
  93159727.48742      2247.89142        34.384
  24508001.95246 128790477.31646     -3543.82446        42.049    24508001.97642
 100356252.55342     -2761.42642        33.810
  20916890.86649 109919040.83249      -708.06649        48.703    20916889.64146
  85651218.41546      -551.74246        42.408
  21801002.09748 114565084.00548     -2123.64148        46.971    21801002.15245
  89271501.12445     -1654.78945        40.616
  22323215.36548 117309311.83348      -269.73448        46.307    22323217.49145
  91409874.99345      -210.18845        40.423
  22543975.91947 118469417.08647     -1536.19547        45.234    22543977.29044
  92313835.24944     -1197.03944        38.683
  21544583.31049 113217592.89449      2258.94549        48.742    21544584.94346
  88221523.16246      1760.21546        42.478
 17  8 21  1 49  0.0000000  0  9G 8G10G14G15G18G21G24G27G32
  23460539.17046 123285974.43746       508.63346        42.999    23460541.66944
  96067016.71144       396.33644        37.192
  20582923.73149 108164020.39849       627.91049        50.362    20582925.25447
  84283674.89147       489.27747        45.373
  22734109.91347 119468578.13047      2875.75447        44.191    22734110.48943
  93092398.42943      2240.84443        36.572
  24528236.34346 128896809.16646     -3545.05146        43.208    24528236.58142
 100439108.54442     -2762.37942        32.924
  20920951.32849 109940378.53949      -714.46949        48.476    20920950.16146
  85667845.19846      -556.73046        42.627
  21813162.05748 114628984.33948     -2136.43848        47.595    21813162.08745
  89321293.57645     -1664.75845        40.229
  22324812.31548 117317704.56848      -289.80948        46.404    22324814.72045
  91416414.79545      -225.82845        39.726
  22552791.64547 118515743.51847     -1552.16447        44.838    22552792.87045
  92349933.76445     -1209.48045        40.309
  21531723.07149 113150012.61149      2246.25849        48.755    21531725.02346
  88168863.22546      1750.32846        42.842
 17  8 21  1 49 30.0000000  0  9G 8G10G14G15G18G21G24G27G32
  23457688.27346 123270992.90546       489.99646        42.117    23457690.81744
  96055342.79244       381.81244        36.764
  20579362.51249 108145305.58549       619.83649        50.563    20579363.96147
  84269091.92147       482.98447        45.048
  22717720.32847 119382449.02247      2866.29747        44.340    22717720.81944
  93025284.88144      2233.47744        37.061
  24548476.74545 129003175.50645     -3546.02745        40.424    24548477.45942
 100521991.36242     -2763.14542        33.343
  20925048.66549 109961910.38649      -720.90249        48.680    20925047.50146
  85684623.26046      -561.74646        42.044
  21825395.19048 114693267.48848     -2149.20348        47.597    21825394.66345
  89371384.35045     -1674.70745        39.814
  22326523.71648 117326697.50748      -309.67648        46.955    22326526.02745
  91423422.30245      -241.30945        39.606
  22561698.79347 118562551.40447     -1568.18047        44.870    22561700.30545
  92386407.42045     -1221.96145        40.296
  21518935.77349 113082815.56749      2233.53949        48.814    21518937.65446
  88116501.90946      1740.41846        42.756
 17  8 21  1 50  0.0000000  0  9G 8G10G14G15G18G21G24G27G32
  23454943.46346 123256569.59346       471.39146        42.779    23454946.42343
  96044103.87543       367.31243        36.413
  20575847.37049 108126832.98049       611.84049        50.583    20575848.83047
  84254697.68847       476.75447        45.335
  22701383.71547 119296597.88247      2857.03947        44.751    22701383.93143
  92958387.90843      2226.26243        35.850
  24568723.63546 129109574.08246     -3547.14846        42.119    24568724.21542
 100604899.34342     -2764.01642        32.954
  20929182.99249 109983636.49249      -727.44149        48.473    20929181.71346
  85701552.69146      -566.84046        42.575
  21837700.58448 114757932.48048     -2161.77048        47.520    21837700.10045
  89421772.65045     -1684.50045        40.224
  22328349.26348 117336290.87448      -329.79348        46.404    22328351.61245
  91430897.64945      -256.98445        40.645
  22570697.24647 118609838.44747     -1584.26647        44.951    22570698.75345
  92423254.44745     -1234.49645        39.992
  21506221.66149 113016002.67749      2220.70749        48.990    21506223.58546
  88064439.93846      1730.41846        42.645
 17  8 21  1 50 30.0000000  0  9G 8G10G14G15G18G21G24G27G32
  23452305.21946 123242704.41646       452.88346        42.346    23452307.82043
  96033299.82243       352.89143        34.613
  20572378.33349 108108602.95149       603.66049        50.455    20572379.70347
  84240492.47147       470.38347        45.358
  22685099.91647 119211025.90447      2847.80547        44.062    22685099.92444
  92891708.49244      2219.06644        36.711
  24588976.41446 129216003.27446     -3547.98846        41.315    24588976.62442
 100687831.21242     -2764.66842        33.328
  20933354.34349 110005557.05249      -733.96149        48.633    20933352.98946
  85718633.64946      -571.92246        41.826
  21850078.09848 114822978.53948     -2174.57848        46.949    21850077.99045
  89472457.86745     -1694.48045        40.216
  22330289.17648 117346485.14048      -349.85248        46.126    22330291.47045
  91438841.22245      -272.61345        40.736
  22579786.57647 118657602.34247     -1600.08247        45.012    22579787.85945
  92460473.05745     -1246.82045        40.304
  21493580.84049 112949574.83649      2207.76649        48.832    21493582.79446
  88012678.01146      1720.33246        42.663
